City_ID,City,Lat,Lng,Max Temp,Humidity,Cloudiness,Wind Speed,Country,Date
0,puerto natales,-51.7236,-72.4875,14.25,58,75,2.06,CL,1706008627
1,stribro,49.7529,13.0041,6.03,100,99,7.11,CZ,1706008629
2,blackmans bay,-43.0167,147.3167,15.07,85,93,0.58,AU,1706008630
3,port-aux-francais,-49.35,70.2167,7.83,98,100,8.77,TF,1706008631
4,waitangi,-43.9535,-176.5597,17.68,99,99,2.24,NZ,1706008632
5,puerto ayora,-0.7393,-90.3518,25.31,98,87,2.61,EC,1706008632
6,tanout,14.9709,8.8879,26.42,9,39,7.29,NE,1706008634
7,west bay,19.3667,-81.4167,25.04,88,20,5.66,KY,1706008635
8,adamstown,-25.066,-130.1015,24.26,76,88,4.45,PN,1706008636
9,udachny,66.4167,112.4,-9.75,92,91,11.02,RU,1706008637
10,ilulissat,69.2167,-51.1,-13.99,56,40,2.06,GL,1706008638
11,solnechnyy,50.7214,136.6319,-20.65,94,99,4.39,RU,1706008639
12,hawaiian paradise park,19.5933,-154.9731,21.69,90,0,2.57,US,1706008640
13,al jawf,29.5,38.75,19.08,31,31,5.59,SA,1706008641
14,codrington,-38.2667,141.9667,19.92,60,0,2.95,AU,1706008642
15,kapa'a,22.0752,-159.319,24.99,86,75,5.66,US,1706008643
16,west island,-12.1568,96.8225,28.99,79,40,3.6,CC,1706008643
17,pitimbu,-7.4706,-34.8086,28.33,68,51,4.87,BR,1706008644
18,roma,43.2128,-75.4557,0.53,94,100,3.6,US,1706008588
19,zhigalovo,54.8097,105.1578,-23.16,99,13,0.31,RU,1706008646
20,rosarito,32.3333,-117.0333,14.53,90,64,5.62,MX,1706008504
21,port saint john's,-31.6229,29.5448,20.39,79,100,2.45,ZA,1706008647
22,mugia,43.1041,-9.2179,16.62,95,99,6.92,ES,1706008648
23,ushuaia,-54.8,-68.3,17.81,42,0,7.72,AR,1706008648
24,grytviken,-54.2811,-36.5092,2.88,74,82,3.73,GS,1706008650
25,pombal,-6.7703,-37.8017,29.13,59,82,4.5,BR,1706008651
26,remire-montjoly,4.9167,-52.2667,28.02,74,20,4.63,GF,1706008652
27,cabrobo,-8.5142,-39.31,28.71,60,23,7.12,BR,1706008653
28,adrar,20.5022,-10.0711,19.79,23,100,10.38,MR,1706008654
29,fale old settlement,-9.3852,-171.2468,29.6,71,64,3.61,TK,1706008654
30,alice springs,-23.7,133.8833,37.75,31,40,4.63,AU,1706008655
31,balapur,20.6667,76.7667,28.18,17,28,4.4,IN,1706008657
32,aasiaat,68.7098,-52.8699,-12.1,80,100,6.23,GL,1706008658
33,golyshmanovo,56.3979,68.3728,-18.57,95,39,1.83,RU,1706008659
34,tura,25.5198,90.2201,18.95,46,13,1.54,IN,1706008660
35,nanma,36.1817,118.1583,-5.86,37,0,4.08,CN,1706008660
36,albany,42.6001,-73.9662,1.72,70,100,1.79,US,1706008397
37,bardai,11.65,7.2333,29.8,7,7,4.67,NG,1706008663
38,bethel,41.3712,-73.414,1.78,57,0,1.54,US,1706008664
39,mili,6.0815,171.735,27.96,83,9,7.87,MH,1706008664
40,mendi,-6.1761,143.6513,14.05,98,100,0.3,PG,1706008665
41,iqaluit,63.7506,-68.5145,-32.95,67,40,8.75,CA,1706008666
42,stanley,54.868,-1.6985,5.16,91,40,5.14,GB,1706008667
43,vilyuchinsk,52.9306,158.4028,-5.04,95,100,1.72,RU,1706008669
44,palikir - national government center,6.9248,158.1611,27.41,83,100,3.09,FM,1706008554
45,mirny,62.5353,113.9611,-10.98,61,99,5.81,RU,1706008670
46,yellowknife,62.456,-114.3525,-24.21,95,100,2.19,CA,1706008672
47,badger,64.8,-147.5333,-37.07,71,0,0.0,US,1706008673
48,mokhsogollokh,61.4681,128.9203,-33.21,96,99,1.31,RU,1706008674
49,liwa,24.5361,56.5656,25.36,36,1,5.16,OM,1706008675
50,fort mcmurray,56.7268,-111.381,-13.23,78,100,3.6,CA,1706008676
51,leh,34.1667,77.5833,-3.88,23,11,1.2,IN,1706008677
52,saldanha,-33.0117,17.9442,22.05,61,8,6.93,ZA,1706008671
53,murzuq,25.9155,13.9184,16.21,41,4,5.75,LY,1706008681
54,valozhyn,54.0909,26.5225,0.88,100,100,4.0,BY,1706008682
55,yakeshi,49.2833,120.7333,-27.67,100,75,2.05,CN,1706008682
56,tofol,5.3248,163.0078,28.08,83,58,9.67,FM,1706008683
57,muang phonsavan,19.45,103.2167,12.11,75,83,2.05,LA,1706008684
58,papatowai,-46.5619,169.4708,6.97,75,36,5.9,NZ,1706008685
59,suva,-18.1416,178.4415,26.43,86,100,1.12,FJ,1706008686
60,college,64.8569,-147.8028,-37.03,69,0,0.0,US,1706008552
61,hermanus,-34.4187,19.2345,27.67,50,7,7.75,ZA,1706008486
62,illapel,-31.6308,-71.1653,21.12,68,0,0.61,CL,1706008688
63,saint-pierre,-21.3393,55.4781,29.82,84,75,7.72,RE,1706008689
64,iskateley,67.6803,53.1512,-9.43,94,100,5.81,RU,1706008692
65,fort st. john,56.2499,-120.8529,-14.06,85,75,2.06,CA,1706008487
66,waiuku,-37.25,174.75,21.78,73,100,4.56,NZ,1706008694
67,port alfred,-33.5906,26.891,22.32,68,85,2.24,ZA,1706008695
68,ormara,25.2088,64.6357,25.99,35,0,3.68,PK,1706008696
69,punta arenas,-53.15,-70.9167,14.06,62,0,6.17,CL,1706008697
70,tolanaro,-25.0319,46.9987,27.19,68,87,4.88,MG,1706008698
71,edinburgh of the seven seas,-37.0676,-12.3116,19.08,95,100,8.25,SH,1706008699
72,tacoaleche,22.8167,-102.4167,11.52,85,100,4.44,MX,1706008699
73,lakatoro,-16.0999,167.4164,26.65,86,100,1.39,VU,1706008701
74,sao joao do piaui,-8.3581,-42.2467,25.91,83,29,1.95,BR,1706008702
75,thompson,55.7435,-97.8558,-21.91,71,75,2.06,CA,1706008621
76,uturoa,-16.7333,-151.4333,27.86,70,96,0.14,PF,1706008707
77,bredasdorp,-34.5322,20.0403,24.41,52,62,10.8,ZA,1706008708
78,san antonio de pale,-1.4014,5.6325,27.61,80,6,5.88,GQ,1706008709
79,isafjordur,66.0755,-23.124,-0.98,74,75,1.54,IS,1706008710
80,wailua homesteads,22.0669,-159.378,24.24,86,75,5.66,US,1706008711
81,ca mau,9.1769,105.15,27.21,62,56,5.71,VN,1706008712
82,ploneour-lanvern,47.9,-4.2833,13.18,94,100,8.75,FR,1706008713
83,mogocha,53.7333,119.7667,-18.14,99,71,1.16,RU,1706008715
84,zagora,30.3484,-5.8365,17.49,20,0,2.06,MA,1706008715
85,georgetown,5.4112,100.3354,26.64,94,40,2.06,MY,1706008716
86,kristiansund,63.1115,7.732,4.36,81,75,4.63,NO,1706008717
87,saudarkrokur,65.7461,-19.6394,-4.9,77,69,4.08,IS,1706008718
88,sur,22.5667,59.5289,24.2,58,4,4.32,OM,1706008719
89,asekeyevo,53.5742,52.7972,-15.23,90,76,0.52,RU,1706008721
90,sitka,57.0531,-135.33,6.94,81,100,4.12,US,1706008722
91,ust-nera,64.5667,143.2,-43.69,99,66,2.57,RU,1706008723
92,atafu village,-8.5421,-172.5159,29.63,73,89,3.58,TK,1706008724
93,saint-philippe,-21.3585,55.7679,29.77,89,100,4.91,RE,1706008725
94,linxia chengguanzhen,35.6003,103.2064,-9.63,67,100,1.89,CN,1706008726
95,san fernando de apure,7.8878,-67.4724,24.01,72,87,2.84,VE,1706008727
96,mount isa,-20.7333,139.5,32.87,58,40,2.57,AU,1706008727
97,vadso,70.0744,29.7487,-1.91,80,75,2.57,NO,1706008728
98,maraba,-5.3686,-49.1178,25.01,91,79,1.38,BR,1706008729
99,tobelo,1.7284,128.0095,26.55,83,62,3.75,ID,1706008730
100,grootfontein,-19.5667,18.1167,30.81,22,16,6.41,NA,1706008732
101,sumbe,-11.2061,13.8437,26.31,80,99,1.97,AO,1706008733
102,ribeira grande,38.5167,-28.7,18.22,88,75,10.28,PT,1706008734
103,shiqian,27.5225,108.2281,0.26,62,28,2.27,CN,1706008735
104,vorkuta,67.5,64.0,-14.43,88,99,4.72,RU,1706008735
105,minas de marcona,-15.2119,-75.1103,18.92,86,91,2.42,PE,1706008736
106,kodiak,57.79,-152.4072,-3.27,80,100,6.69,US,1706008737
107,east london,-33.0153,27.9116,21.45,58,99,4.02,ZA,1706008738
108,sao jose da coroa grande,-8.8978,-35.1478,28.89,70,64,5.16,BR,1706008738
109,nabire,-3.3667,135.4833,26.85,83,96,0.78,ID,1706008739
110,enewetak,11.3474,162.3373,26.74,73,78,8.32,MH,1706008740
111,esil,51.9556,66.4042,-9.03,86,100,3.49,KZ,1706008740
112,kununurra,-15.7667,128.7333,25.99,94,75,1.54,AU,1706008741
113,puerto lopez,4.0845,-72.956,23.38,60,87,1.13,CO,1706008742
114,antalaha,-14.9003,50.2788,27.66,83,100,2.58,MG,1706008743
115,longboat key,27.4125,-82.659,17.79,87,100,1.79,US,1706008744
116,selfoss,63.9331,-20.9971,-3.67,93,100,3.76,IS,1706008745
117,whitehorse,60.7161,-135.0538,-19.43,74,100,2.06,CA,1706008746
118,crane,31.3974,-102.3501,10.59,87,100,4.75,US,1706008747
119,tsiombe,-25.3,45.4833,28.64,57,87,6.22,MG,1706008748
120,longyearbyen,78.2186,15.6401,-2.09,74,75,10.29,SJ,1706008748
121,takoradi,4.8845,-1.7554,29.5,67,10,2.99,GH,1706008750
122,pontianak,-0.0333,109.3333,29.99,70,20,2.06,ID,1706008752
123,tiksi,71.6872,128.8694,-21.08,92,100,4.93,RU,1706008752
124,jamestown,42.097,-79.2353,0.77,88,100,2.06,US,1706008688
125,ola,59.5833,151.2833,-32.19,93,58,1.69,RU,1706008754
126,dunedin,-45.8742,170.5036,8.22,71,31,4.02,NZ,1706008586
127,doume,4.2333,13.45,36.89,18,14,0.76,CM,1706008757
128,duzce,40.8389,31.1639,8.01,46,3,1.35,TR,1706008758
129,anadyr,64.75,177.4833,-19.72,76,0,4.0,RU,1706008759
130,port lincoln,-34.7333,135.8667,19.85,79,5,4.49,AU,1706008593
131,pacific grove,36.6177,-121.9166,13.14,92,100,3.6,US,1706008761
132,coahuayana de hidalgo,18.7,-103.6583,21.73,77,12,1.06,MX,1706008763
133,constantia,44.1833,28.65,4.38,66,24,4.7,RO,1706008587
134,palanga,55.9175,21.0686,4.01,93,100,4.12,LT,1706008764
135,istgah-e rah ahan-e garmsar,35.2346,52.3094,14.43,37,100,1.67,IR,1706008766
136,ketchikan,55.3422,-131.6461,7.99,93,100,2.57,US,1706008767
137,vorgashor,67.5833,63.95,-14.93,89,98,4.65,RU,1706008768
138,qarqaraly,49.4058,75.4742,-12.57,76,60,2.44,KZ,1706008768
139,invercargill,-46.4,168.35,7.79,84,56,1.34,NZ,1706008770
140,aconibe,1.2968,10.9369,30.46,47,61,1.63,GQ,1706008771
141,shagonar,51.5333,92.8,-28.81,96,46,1.32,RU,1706008772
142,magadan,59.5667,150.8,-32.12,90,6,1.57,RU,1706008760
143,gua musang,4.8823,101.9644,23.35,99,100,0.31,MY,1706008774
144,olonkinbyen,70.9221,-8.7187,-1.28,79,100,11.02,SJ,1706008774
145,umba,66.6871,34.3429,0.89,99,100,6.04,RU,1706008775
146,touros,-5.1989,-35.4608,28.67,71,57,4.62,BR,1706008561
147,bemidji,47.4736,-94.8803,-6.13,93,100,2.06,US,1706008777
148,yeed,4.55,43.0333,35.76,14,40,8.69,SO,1706008779
149,praia da vitoria,38.7333,-27.0667,17.64,94,40,10.92,PT,1706008780
150,khunti,23.0833,85.2833,20.06,32,9,1.15,IN,1706008781
151,petropavlovsk-kamchatsky,53.0452,158.6483,-5.86,85,75,3.0,RU,1706008781
152,tocopilla,-22.092,-70.1979,22.71,69,8,1.86,CL,1706008782
153,akrehamn,59.2667,5.1833,7.78,75,40,6.17,NO,1706008783
154,coxen hole,16.3244,-86.5366,26.23,80,22,10.74,HN,1706008784
155,luderitz,-26.6481,15.1594,25.46,57,75,7.07,NA,1706008586
156,kita,13.0349,-9.4895,30.45,5,11,4.47,ML,1706008786
157,carnarvon,-24.8667,113.6333,24.12,68,3,14.76,AU,1706008787
158,tumpat,6.1978,102.171,23.99,100,40,1.03,MY,1706008788
159,northam,51.0333,-4.2167,14.25,97,100,12.18,GB,1706008789
160,gadzhiyevo,69.2551,33.3362,-6.07,93,97,2.94,RU,1706008790
161,kasama,-10.2129,31.1808,21.19,71,99,3.21,ZM,1706008790
162,nar'yan-mar,67.6713,53.087,-9.38,94,100,5.81,RU,1706008791
163,talnakh,69.4865,88.3972,-17.11,99,100,2.44,RU,1706008635
164,toliara,-23.35,43.6667,31.69,58,2,10.61,MG,1706008674
165,salalah,17.0151,54.0924,27.05,39,0,5.66,OM,1706008795
166,revelstoke,50.9832,-118.2023,-0.99,100,100,0.0,CA,1706008796
167,lebu,-37.6167,-73.65,14.65,90,80,3.99,CL,1706008796
168,saint-joseph,-21.3667,55.6167,29.21,88,100,4.91,RE,1706008797
169,burang,30.25,81.1667,-5.19,35,0,2.45,CN,1706008798
170,lazaro cardenas,17.9583,-102.2,22.9,74,5,1.5,MX,1706008799
171,cabedelo,-6.9811,-34.8339,28.37,69,71,4.55,BR,1706008778
172,ancud,-41.8697,-73.8203,12.53,91,3,0.82,CL,1706008802
173,lihue,21.9789,-159.3672,24.58,86,75,5.66,US,1706008689
174,paracuru,-3.41,-39.0306,28.95,73,13,3.51,BR,1706008804
175,essaouira,31.5125,-9.77,22.72,30,0,1.03,MA,1706008805
176,beinamar,8.6698,15.3813,35.02,5,0,2.15,TD,1706008806
177,olds,51.7834,-114.102,-7.53,85,99,1.03,CA,1706008807
178,kulhudhuffushi,6.6221,73.07,27.63,77,25,2.96,MV,1706008808
179,keflavik,64.0049,-22.5624,2.24,87,75,3.6,IS,1706008809
180,klyuchi,52.2667,79.1667,-11.75,86,27,2.68,RU,1706008810
181,kapuskasing,49.4169,-82.4331,-25.95,83,0,2.06,CA,1706008811
182,tazovsky,67.4667,78.7,-20.53,97,53,4.49,RU,1706008811
183,sinabang,2.4803,96.3801,28.49,74,68,0.9,ID,1706008812
184,newman,37.3138,-121.0208,12.23,89,61,1.03,US,1706008813
185,jastrowie,53.4205,16.8176,4.35,83,98,7.53,PL,1706008815
186,sohagpur,22.7,78.2,24.76,17,0,2.47,IN,1706008816
187,darwin,-12.4611,130.8418,26.99,89,75,1.03,AU,1706008170
188,sabha,27.0377,14.4283,15.99,40,5,5.77,LY,1706008817
189,neelankarai,12.9455,80.2575,29.03,65,40,3.6,IN,1706008818
190,saipan,15.1355,145.701,24.39,78,0,4.63,MP,1706008819
191,puerto baquerizo moreno,-0.9,-89.6,24.96,91,93,3.16,EC,1706008820
192,adzope,6.1069,-3.8619,34.33,44,42,0.77,CI,1706008821
193,fortaleza,-3.7227,-38.5247,30.04,83,40,4.12,BR,1706008800
194,aykhal,66.0,111.5,-13.44,86,96,13.27,RU,1706008823
195,hadibu,12.65,54.0333,25.27,62,23,6.02,YE,1706008824
196,carupano,10.6678,-63.2585,23.73,91,20,4.72,VE,1706008825
197,emerald,-23.5333,148.1667,31.3,50,61,10.95,AU,1706008791
198,grantsville,40.5999,-112.4644,5.76,94,100,2.57,US,1706008828
199,nadym,65.5333,72.5167,-21.41,91,8,4.62,RU,1706008662
200,bilibino,68.0546,166.4372,-37.21,100,100,0.71,RU,1706008829
201,fuglafjordur,62.244,-6.814,4.26,76,93,9.52,FO,1706008830
202,rawson,-43.3002,-65.1023,28.97,31,11,11.22,AR,1706008831
203,cidreira,-30.1811,-50.2056,21.91,66,89,7.27,BR,1706008832
204,port elizabeth,-33.918,25.5701,23.94,55,75,7.2,ZA,1706008670
205,sisimiut,66.9395,-53.6735,-12.47,93,100,4.54,GL,1706008835
206,okhotsk,59.3833,143.3,-35.02,85,8,3.01,RU,1706008837
207,ujae,8.9322,165.7642,27.16,80,43,9.58,MH,1706008837
208,kendari,-3.945,122.4989,26.35,86,92,1.08,ID,1706008838
209,avarua,-21.2078,-159.775,24.03,78,75,2.06,CK,1706008839
210,markovo,57.3206,107.0881,-19.31,99,42,1.45,RU,1706008840
211,porto murtinho,-21.6989,-57.8825,22.58,88,99,2.05,BR,1706008841
212,rabo de peixe,37.8,-25.5833,17.77,99,20,6.69,PT,1706008842
213,namtsy,62.7161,129.6658,-32.51,96,98,2.51,RU,1706008843
214,qaqortoq,60.7167,-46.0333,-10.26,82,88,4.46,GL,1706008843
215,ghardaia,32.4909,3.6735,12.64,44,0,0.0,DZ,1706008844
216,gaspe,48.8334,-64.4819,-2.05,58,75,8.23,CA,1706008845
217,afaahiti,-17.75,-149.2833,24.93,76,94,0.7,PF,1706008846
218,ust'-ordynskiy,52.805,104.7508,-21.41,94,12,1.58,RU,1706008846
219,hamilton,39.1834,-84.5333,3.93,78,100,3.09,US,1706008641
220,brownwood,31.7093,-98.9912,9.0,98,100,2.51,US,1706008602
221,al mawsil al jadidah,36.3346,43.0978,17.76,48,3,5.92,IQ,1706008849
222,flying fish cove,-10.4217,105.6791,27.82,78,15,2.57,CX,1706008850
223,port mathurin,-19.6833,63.4167,28.23,87,71,10.44,MU,1706008851
224,bodo,67.28,14.405,4.02,89,40,9.26,NO,1706008852
225,staraya russa,57.9944,31.3608,-0.01,96,100,5.79,RU,1706008683
226,brodnica,53.2597,19.3965,5.89,84,98,7.71,PL,1706008853
227,port moresby,-9.4431,147.1797,24.07,92,100,4.78,PG,1706008854
228,hasaki,35.7333,140.8333,9.22,81,94,7.3,JP,1706008855
229,avsallar,36.616,31.7806,15.75,50,22,2.05,TR,1706008856
230,akureyri,65.6835,-18.0878,-1.04,69,20,5.14,IS,1706008857
231,hovd,48.0056,91.6419,-21.55,96,6,0.22,MN,1706008858
232,borogontsy,62.6683,131.1683,-33.94,97,72,1.96,RU,1706008859
233,labrador city,52.9463,-66.9114,-27.05,58,40,9.26,CA,1706008744
234,magdagachi,53.45,125.8,-21.61,94,14,1.69,RU,1706008860
235,al ghayzah,16.2079,52.176,26.71,29,26,4.41,YE,1706008861
236,kimberley,-28.7323,24.7623,31.83,35,20,2.06,ZA,1706008668
237,broken hill,-31.95,141.4333,33.42,15,0,4.69,AU,1706008863
238,kruisfontein,-34.0033,24.7314,22.71,46,74,8.28,ZA,1706008864
239,badagry,6.4167,2.8833,31.75,53,74,2.85,NG,1706008866
240,nizhneudinsk,54.9076,99.0276,-17.66,96,16,1.34,RU,1706008867
241,shahrud,36.4182,54.9763,9.33,41,69,0.96,IR,1706008868
242,monrovia,6.3005,-10.7969,29.62,70,13,0.57,LR,1706008605
243,santa terezinha,-29.9002,-50.0904,21.83,68,64,7.24,BR,1706008870
244,irtyshsk,53.3333,75.4572,-16.87,86,98,2.44,KZ,1706008871
245,kailua-kona,19.6406,-155.9956,24.98,76,100,0.45,US,1706008872
246,north shore,-36.8,174.75,20.78,71,100,4.02,NZ,1706008872
247,fallon,39.4735,-118.7774,4.93,95,100,0.0,US,1706008873
248,kone,-21.0595,164.8658,24.77,94,100,1.15,NC,1706008875
249,krasnyy chikoy,50.3643,108.7512,-20.19,97,6,0.7,RU,1706008876
250,kavaratti,10.5669,72.642,27.78,71,70,5.3,IN,1706008877
251,cabo san lucas,22.8909,-109.9124,20.42,76,93,1.34,MX,1706008631
252,troitsko-pechorsk,62.7084,56.1964,-9.61,91,100,5.36,RU,1706008881
253,korsakov,46.6328,142.7813,-8.09,94,100,9.18,RU,1706008883
254,ta`u,-14.2336,-169.5144,28.56,80,31,3.45,AS,1706008884
255,chibougamau,49.9168,-74.3659,-25.21,77,0,4.12,CA,1706008885
256,irbit,57.6705,63.071,-11.42,86,13,3.47,RU,1706008886
257,araruna,-6.5583,-35.7417,25.87,71,42,3.23,BR,1706008886
258,lospalos,-8.5186,127.0025,24.79,86,95,4.22,TL,1706008887
259,prainha,-1.8,-53.48,24.88,88,69,1.79,BR,1706008888
260,cascais,38.6979,-9.4215,18.62,90,20,3.58,PT,1706008889
261,el granada,37.5027,-122.4694,13.41,95,100,6.17,US,1706008891
262,rancho palos verdes,33.7445,-118.387,14.15,97,7,1.79,US,1706008893
263,karditsa,39.3656,21.9217,5.77,49,0,0.96,GR,1706008894
264,yeppoon,-23.1333,150.7333,28.88,84,86,9.01,AU,1706008897
265,elverum,60.8819,11.5623,2.1,87,90,1.97,NO,1706008899
266,gwangju,35.1547,126.9156,-4.42,90,100,7.68,KR,1706008900
267,fukuecho,32.6881,128.8419,3.75,77,100,16.76,JP,1706008901
268,nemuro,43.3236,145.575,1.27,75,28,10.51,JP,1706008903
269,valparaiso,-33.0393,-71.6273,14.8,94,100,2.06,CL,1706008904
270,abeche,13.8292,20.8324,34.01,6,0,4.12,TD,1706008905
271,ribeira brava,32.65,-17.0667,22.62,72,38,4.97,PT,1706008905
272,ascension,30.2169,-90.9001,16.12,99,100,2.06,US,1706008906
273,kalianget,-7.05,113.9333,27.46,84,100,4.94,ID,1706008907
274,lamu,-2.2717,40.902,31.12,65,87,6.07,KE,1706008908
275,celestun,20.8667,-90.4,23.3,89,100,4.58,MX,1706008909
276,mercedes,-34.6515,-59.4307,20.91,56,0,4.25,AR,1706008909
277,mount pearl,47.5166,-52.7813,-1.03,92,100,8.75,CA,1706008911
278,st. john's,47.5649,-52.7093,-0.57,92,100,8.75,CA,1706008912
279,walvis bay,-22.9575,14.5053,23.53,64,0,4.12,NA,1706008913
280,eureka,40.8021,-124.1637,12.18,97,68,0.91,US,1706008914
281,san luis de la loma,17.2706,-100.8939,24.2,62,0,1.73,MX,1706008916
282,alice town,25.7167,-79.3,22.67,72,67,10.31,BS,1706008916
283,kuvandyk,51.4781,57.3552,-11.93,80,1,2.99,RU,1706008918
284,itoman,26.1247,127.6694,12.21,71,75,13.38,JP,1706008920
285,shivpuri,25.4333,77.65,21.02,19,0,2.93,IN,1706008922
286,mount gambier,-37.8333,140.7667,20.1,46,0,2.18,AU,1706008641
287,cooper's town,26.8667,-77.5167,21.57,74,100,10.64,BS,1706008925
288,arish,31.1316,33.7984,17.67,65,27,11.2,EG,1706008926
289,baxter,46.3433,-94.2867,-3.16,72,100,0.0,US,1706008927
290,kourou,5.1552,-52.6478,28.03,74,91,3.79,GF,1706008928
291,svetlyy,54.675,20.1347,5.03,89,99,8.3,RU,1706008928
292,bojia,26.4672,111.9681,1.0,59,3,3.14,CN,1706008929
293,uruzgan,32.8333,66.0,10.44,14,0,1.1,AF,1706008930
294,darnah,32.767,22.6367,14.22,57,89,7.13,LY,1706008931
295,utrik,11.2278,169.8474,26.14,75,83,8.06,MH,1706008872
296,yaren,-0.5472,166.916,29.55,73,100,7.09,NR,1706008934
297,ulladulla,-35.35,150.4667,19.87,78,45,4.71,AU,1706008935
298,idfu,24.9803,32.8747,23.1,30,100,6.03,EG,1706008936
299,tual,-5.6667,132.75,28.86,78,99,6.13,ID,1706008938
300,lerwick,60.1545,-1.1494,7.0,73,90,5.81,GB,1706008939
301,sao tome,0.3365,6.7273,28.93,74,34,2.51,ST,1706008940
302,kerikeri,-35.2268,173.9474,18.84,90,52,3.48,NZ,1706008643
303,i-n-salah,27.1935,2.4607,15.65,34,0,13.27,DZ,1706008942
304,kargasok,59.0556,80.8572,-9.46,95,100,2.68,RU,1706008943
305,westport,41.1415,-73.3579,2.48,55,0,2.06,US,1706008944
306,katoomba,-33.7198,150.3074,15.49,86,37,1.33,AU,1706008946
307,angaur state,6.906,134.13,27.21,81,100,9.43,PW,1706008947
308,queenstown,-31.8976,26.8753,22.14,55,62,4.69,ZA,1706008948
309,happy valley-goose bay,53.3168,-60.3315,-13.83,56,20,6.17,CA,1706008948
310,hotan,37.0997,79.9269,-1.71,34,86,2.51,CN,1706008949
311,harstad,68.799,16.5293,1.75,97,100,15.65,NO,1706008950
312,miri,4.4148,114.0089,28.08,83,20,3.6,MY,1706008951
313,bovalino,38.149,16.174,13.94,60,59,4.19,IT,1706008952
314,barabai,-2.5833,115.3833,25.0,93,95,1.34,ID,1706008952
315,pergamino,-33.89,-60.5736,20.1,58,0,3.96,AR,1706008954
316,sumbawa besar,-8.5,117.4333,25.88,87,100,2.35,ID,1706008955
317,salekhard,66.53,66.6019,-17.87,98,100,1.47,RU,1706008956
318,perugorria,-29.3413,-58.6106,18.47,79,0,5.29,AR,1706008958
319,hami,42.8,93.45,-9.36,64,2,2.98,CN,1706008958
320,ndola,-12.9587,28.6366,21.93,88,93,2.1,ZM,1706008959
321,koppies,-27.2418,27.5742,31.26,23,2,2.16,ZA,1706008960
322,kolonia,50.9333,6.95,10.03,74,40,7.72,DE,1706008946
323,katabu,-4.9333,122.5167,25.57,89,55,2.03,ID,1706008962
324,merizo village,13.2658,144.6691,26.85,88,85,7.02,GU,1706008963
325,bhadrakh,21.0528,86.52,22.53,37,53,5.05,IN,1706008964
326,christchurch,-43.5333,172.6333,10.51,89,75,2.57,NZ,1706008503
327,zyrya,40.3661,50.2917,3.05,60,99,10.25,AZ,1706008966
328,ghadamis,30.1337,9.5007,13.85,43,3,4.89,LY,1706008968
329,new norfolk,-42.7826,147.0587,15.72,91,91,1.03,AU,1706008968
330,leava,-14.3,-178.1667,29.29,65,50,1.46,WF,1706008969
331,nishinoomote,30.7333,131.0,8.44,76,100,15.67,JP,1706008970
332,weno,7.4515,151.8468,24.97,100,100,3.09,FM,1706008970
333,nekrasovskoye,57.6766,40.3657,-4.77,73,100,6.0,RU,1706008971
334,kiunga,-6.1219,141.2906,22.97,98,100,0.59,PG,1706008972
335,rio grande,-32.035,-52.0986,24.06,58,20,7.21,BR,1706008974
336,saguenay,48.4168,-71.0657,-11.54,72,75,6.69,CA,1706008726
337,usogorsk,63.4106,48.6872,-6.3,93,100,5.61,RU,1706008976
338,brookings,44.3114,-96.7984,-4.0,93,100,3.6,US,1706008977
339,raduzhny,62.0961,77.475,-22.19,100,53,2.34,RU,1706008977
340,margaret river,-33.95,115.0667,19.62,66,0,5.06,AU,1706008979
341,palangkaraya,-2.2,113.8333,27.72,73,99,1.82,ID,1706008980
342,natal,-5.795,-35.2094,30.12,70,75,5.14,BR,1706008981
343,mankera,31.3866,71.4407,19.53,17,0,0.66,PK,1706008704
344,rongelap,11.1635,166.8941,26.18,75,55,8.25,MH,1706008982
345,voinjama,8.4219,-9.7478,31.36,15,8,0.8,LR,1706008983
346,gebeit,21.0667,36.3167,29.13,30,3,2.08,SD,1706008984
347,nuuk,64.1835,-51.7216,-6.66,79,75,6.71,GL,1706008985
348,egilsstadir,65.2653,-14.3948,-7.05,68,0,1.03,IS,1706008987
349,kalmunai,7.4167,81.8167,27.48,65,32,4.77,LK,1706008988
350,san sebastian de la gomera,28.0916,-17.1133,26.88,40,0,6.17,ES,1706008989
351,betio village,1.358,172.9211,29.02,74,11,5.62,KI,1706008989
352,pogradec,40.9025,20.6525,3.0,74,15,0.97,AL,1706008990
353,north platte,41.1239,-100.7654,-2.06,95,100,2.57,US,1706008991
354,lalpur,22.2,69.9667,27.27,27,1,4.06,IN,1706008991
355,ouled mimoun,34.9047,-1.0339,13.01,17,27,0.59,DZ,1706008992
356,ilukste,55.9775,26.2966,2.31,97,100,4.97,LV,1706008993
357,whitby,54.4877,-0.615,7.4,88,100,3.13,GB,1706008994
358,chonchi,-42.6128,-73.8092,15.07,91,41,1.83,CL,1706008995
359,coquimbo,-29.9533,-71.3436,15.85,94,100,1.03,CL,1706008996
360,la ronge,55.1001,-105.2842,-14.86,85,100,3.6,CA,1706008996
361,opuwo,-18.0607,13.84,31.39,22,97,4.34,NA,1706008881
362,campeche,19.0,-90.5,22.42,94,92,2.29,MX,1706008998
363,abepura,-2.6333,140.5833,26.45,78,20,2.06,ID,1706008999
364,warrenton,-28.114,24.8475,33.06,20,15,2.02,ZA,1706009000
365,bel ombre,-4.6167,55.4167,29.91,74,40,2.57,SC,1706009001
366,krasnozerskoye,53.9828,79.2374,-17.3,92,99,2.85,RU,1706009002
367,nova sintra,14.8667,-24.7167,21.67,76,6,8.77,CV,1706009003
368,scarborough,54.2797,-0.4044,6.48,89,100,4.47,GB,1706009004
369,ghanzi,-21.5667,21.7833,33.71,20,54,6.93,BW,1706009005
370,hithadhoo,-0.6,73.0833,28.5,76,28,4.4,MV,1706009006
371,tazacorte,28.629,-17.9293,20.54,78,0,2.06,ES,1706009007
372,linqiong,30.4159,103.4609,2.9,84,100,2.73,CN,1706009008
373,nagqu,31.5,92.0,-8.03,53,100,1.47,CN,1706009008
374,shingu,33.7333,135.9833,2.43,66,9,9.07,JP,1706009009
375,freetown,8.484,-13.2299,29.69,55,2,1.12,SL,1706009010
376,smithers,54.7804,-127.1743,-4.82,93,100,1.54,CA,1706009010
377,ciudad constitucion,25.0369,-111.6644,15.56,92,100,2.96,MX,1706008723
378,roosevelt,33.9668,-103.4505,1.12,69,100,2.59,US,1706009001
379,geraldton,-28.7667,114.6,22.23,73,5,11.32,AU,1706009013
380,howrah,22.5892,88.3103,23.0,38,20,2.06,IN,1706009014
381,holualoa,19.6228,-155.9522,22.91,76,100,0.0,US,1706009016
382,mikuni,36.2171,136.1519,0.95,79,100,10.47,JP,1706009017
383,chaoyang,41.5703,120.4586,-6.99,42,48,3.73,CN,1706009018
384,shangzhi,45.2167,127.9667,-18.81,97,100,3.16,CN,1706009021
385,berezovo,63.9381,65.0419,-13.16,94,100,4.81,RU,1706009022
386,at taj,24.2049,23.2857,16.92,33,100,6.13,LY,1706009023
387,malango,-2.9627,119.9001,21.44,95,100,1.26,ID,1706009024
388,san patricio,28.017,-97.5169,19.05,97,100,5.24,US,1706009025
389,caister-on-sea,52.6481,1.7265,7.74,84,90,8.41,GB,1706009025
390,bulolo,-7.2,146.65,23.25,88,100,1.83,PG,1706009026
391,domampot,16.0,120.65,24.5,80,65,2.14,PH,1706009027
392,laibin,23.7,109.2667,6.27,54,100,5.55,CN,1706009028
393,wuxue,29.8506,115.5525,-0.08,55,6,0.75,CN,1706009028
394,talara,-4.5772,-81.2719,23.65,85,96,4.96,PE,1706009029
395,olbia,40.9214,9.4856,17.03,51,20,6.17,IT,1706009030
396,srikakulam,18.3,83.9,25.31,70,47,4.71,IN,1706009031
397,porto novo,6.4965,2.6036,31.9,46,60,3.38,BJ,1706009032
398,owen sound,44.5672,-80.9435,-0.38,92,100,1.34,CA,1706008805
399,dudinka,69.4058,86.1778,-16.85,98,96,4.02,RU,1706009033
400,richards bay,-28.783,32.0377,25.68,68,59,7.28,ZA,1706009034
401,kegen,43.0197,79.2203,-10.52,76,1,2.26,KZ,1706009035
402,devon,50.75,-3.75,11.99,94,100,9.36,GB,1706008984
403,kewanee,41.2456,-89.9248,0.99,100,100,3.11,US,1706009038
404,novorozhdestvenskaya,45.8619,39.9542,-4.01,73,5,6.62,RU,1706009039
405,laguna,38.421,-121.4238,13.36,95,100,0.45,US,1706009039
406,sola,-13.8833,167.55,27.97,78,99,2.1,VU,1706009041
407,nova vicosa,-17.8919,-39.3719,24.31,90,100,0.61,BR,1706009042
408,akranes,64.3218,-22.0749,2.31,88,100,6.03,IS,1706009043
409,pago pago,-14.2781,-170.7025,28.55,94,75,1.03,AS,1706009044
410,turpan,42.9333,89.1667,-2.48,25,0,1.55,CN,1706009045
411,mtambile,-5.3833,39.7,29.88,60,100,4.94,TZ,1706009046
412,campo gallo,-26.5833,-62.85,20.79,63,0,2.91,AR,1706009047
413,yamethin,20.4333,96.15,24.78,30,0,2.22,MM,1706009048
414,forster,-32.1667,152.5167,19.65,91,76,3.76,AU,1706009049
415,datong,40.0936,113.2914,-14.79,81,0,0.94,CN,1706009050
416,owando,-0.4819,15.8999,36.64,30,9,2.03,CG,1706009051
417,tangalle,6.024,80.7911,28.28,71,52,5.24,LK,1706008823
418,zhongxiang,31.1661,112.5831,-0.97,38,0,2.4,CN,1706009052
419,mejit,10.2753,170.8646,26.28,80,90,8.18,MH,1706009053
420,fortuna,40.5982,-124.1573,12.03,98,100,0.0,US,1706009055
421,la passe,45.5549,-0.8967,12.21,87,87,5.1,FR,1706009056
422,cockburn town,21.4612,-71.1419,24.93,82,23,12.21,TC,1706009057
423,puerto deseado,-47.7503,-65.8938,17.34,71,50,5.19,AR,1706009058
424,bryne,58.7354,5.6477,7.54,62,20,4.63,NO,1706009059
425,kismayo,-0.3582,42.5454,30.15,64,95,9.07,SO,1706009059
426,road town,18.4167,-64.6167,26.02,65,40,6.69,VG,1706009060
427,haiku-pauwela,20.9219,-156.3051,21.13,80,0,3.6,US,1706009061
428,andapa,-14.65,49.65,27.0,83,100,0.72,MG,1706009062
429,letlhakane,-21.4167,25.5833,32.14,30,32,5.88,BW,1706009063
430,gracemere,-23.4333,150.45,28.95,70,75,5.14,AU,1706009064
431,gizo,-8.103,156.8419,28.95,80,100,3.9,SB,1706009066
432,kingston,17.997,-76.7936,27.53,82,20,8.23,JM,1706009067
433,macau,22.2006,113.5461,8.85,71,40,10.8,MO,1706009071
434,torbat-e jam,35.244,60.6225,12.41,29,5,3.63,IR,1706009072
435,kasongo-lunda,-6.4667,16.8167,27.67,61,92,0.63,CD,1706009073
436,kovylkino,54.0388,43.9139,-10.05,86,22,6.44,RU,1706009074
437,hashtrud,37.4779,47.0508,1.25,96,100,3.82,IR,1706009075
438,maumere,-8.6199,122.2111,27.62,83,97,5.56,ID,1706009076
439,bull savanna,17.8868,-77.5902,22.13,86,4,3.77,JM,1706009077
440,puri,19.8,85.85,24.29,62,51,5.81,IN,1706009078
441,boa vista,2.8197,-60.6733,23.99,64,0,4.63,BR,1706009080
442,kayangel,8.0823,134.7173,27.77,76,100,10.33,PW,1706009081
443,concepcion,-36.827,-73.0498,12.89,100,100,3.09,CL,1706009082
444,gniew,53.836,18.8231,6.07,80,100,7.56,PL,1706009083
445,ananindeua,-1.3656,-48.3722,27.95,89,0,1.03,BR,1706008870
446,tailai,46.3833,123.4,-14.88,82,49,2.9,CN,1706009085
447,arrecife,28.963,-13.5477,20.99,52,0,6.69,ES,1706009086
448,formosa do rio preto,-11.0483,-45.1931,23.32,92,81,0.7,BR,1706009086
449,puerto la cruz,10.2167,-64.6167,23.06,76,9,1.99,VE,1706009087
450,ukholovo,53.7929,40.4892,-6.86,80,99,8.25,RU,1706009088
451,khandyga,62.6667,135.6,-40.35,100,90,1.43,RU,1706009089
452,quellon,-43.1167,-73.6167,13.28,90,37,2.38,CL,1706009090
453,bobo-dioulasso,11.1771,-4.2979,30.25,17,0,3.09,BF,1706009090
454,atyrau,47.1167,51.8833,-11.99,79,0,6.0,KZ,1706009091
455,aspen,39.1911,-106.8175,-0.96,79,20,1.54,US,1706009092
456,dryden,49.7833,-92.7503,-12.84,78,100,2.06,CA,1706009092
457,port augusta,-32.5,137.7667,38.15,15,0,3.34,AU,1706009093
458,colchani,-20.3,-66.9333,12.91,61,95,0.77,BO,1706009094
459,dalandzadgad,43.5708,104.425,-17.1,79,1,1.22,MN,1706009095
460,seven pagodas,12.6264,80.1722,29.03,65,35,3.86,IN,1706009096
461,lodwar,3.1191,35.5973,35.18,21,16,7.66,KE,1706009096
462,shwebo,22.5667,95.7,22.93,44,0,1.17,MM,1706009097
463,doctor arroyo,23.6667,-100.1833,11.89,87,68,2.23,MX,1706009099
464,portland,45.5234,-122.6762,11.32,94,97,3.13,US,1706008698
465,horta,38.5333,-28.6333,17.8,89,75,10.28,PT,1706009101
466,ponta delgada,37.7333,-25.6667,18.44,88,20,6.69,PT,1706009102
467,colac,-38.3333,143.5833,17.87,61,0,4.05,AU,1706009102
468,crucecita,-28.95,-58.9833,18.69,80,0,4.26,AR,1706009103
469,myitkyina,25.3833,97.4,19.25,48,9,0.47,MM,1706008917
470,isangel,-19.55,169.2667,25.16,94,100,1.19,VU,1706009105
471,masuguru,-11.3667,38.4167,23.37,97,100,2.02,TZ,1706009106
472,touba,8.2833,-7.6833,32.09,12,24,1.47,CI,1706009107
473,bodaybo,57.8506,114.1933,-14.95,97,100,0.26,RU,1706009108
474,manta,-0.95,-80.7333,26.88,83,100,4.92,EC,1706009108
475,yunfu,22.9306,112.0373,7.37,70,93,0.84,CN,1706009109
476,neukirchen,50.8667,9.3333,6.22,83,87,6.23,DE,1706009110
477,shimoda,34.6667,138.95,4.5,58,1,14.69,JP,1706009111
478,jieshi,22.8134,115.8257,11.5,51,94,5.68,CN,1706009111
479,cannonvale,-20.2833,148.7,28.66,82,99,8.2,AU,1706009112
480,ciudad lazaro cardenas,17.9583,-102.2,22.9,74,5,1.5,MX,1706009113
481,inhambane,-23.865,35.3833,30.99,62,40,5.14,MZ,1706009113
482,san miguel,13.4833,-88.1833,21.06,64,29,1.22,SV,1706009115
483,zaozersk,69.4005,32.4476,-8.54,97,97,1.23,RU,1706009115
484,fort bragg,35.139,-79.006,3.79,65,100,0.0,US,1706009116
485,kupang,-10.1667,123.5833,29.32,89,40,4.63,ID,1706009117
486,ezine,39.7856,26.3408,11.81,55,4,5.87,TR,1706009117
487,gargalianoi,37.0667,21.6333,12.42,52,0,5.11,GR,1706009118
488,serhetabat,35.2799,62.3438,13.28,31,2,3.49,TM,1706009119
489,vila franca do campo,37.7167,-25.4333,18.27,99,100,7.23,PT,1706009120
490,nahiyat ash shinafiyah,31.5874,44.6602,25.91,28,3,2.2,IQ,1706009121
491,huai'an,33.5886,119.0192,-3.59,32,16,3.3,CN,1706009081
492,arraial do cabo,-22.9661,-42.0278,26.92,74,75,4.12,BR,1706009122
493,prince rupert,54.3161,-130.3201,6.83,93,100,8.75,CA,1706008997
494,el doncello,1.6782,-75.2847,21.96,77,79,1.39,CO,1706009123
495,burayevo,55.8407,55.4083,-16.52,91,68,2.74,RU,1706009124
496,lubang,13.8584,120.124,27.57,77,80,4.0,PH,1706009125
497,st. thomas,42.7736,-81.1804,0.13,95,100,1.44,CA,1706008973
498,estevan,49.1334,-102.9842,-7.81,85,100,8.23,CA,1706009127
499,fada,9.5667,8.3,32.75,8,1,1.93,NG,1706009128
500,luanda,-8.8368,13.2343,30.0,70,40,4.12,AO,1706009129
501,afif,23.9065,42.9172,25.66,28,8,4.9,SA,1706009132
502,sittwe,20.15,92.9,21.75,45,2,5.54,MM,1706009134
503,broome,42.2506,-75.833,1.43,73,100,0.0,US,1706009135
504,polyarnyy,69.1989,33.4478,-5.4,92,97,2.9,RU,1706009136
505,manziana,42.1321,12.1264,13.6,70,60,1.0,IT,1706009136
506,hilo,19.7297,-155.09,21.81,88,0,2.57,US,1706008993
507,hanceville,34.0607,-86.7675,9.0,95,100,3.36,US,1706009138
508,mareeba,-17.0,145.4333,26.91,88,94,0.7,AU,1706009140
509,boende,-0.2167,20.8667,38.51,19,25,1.91,CD,1706009141
510,manicore,-5.8092,-61.3003,23.61,99,100,1.41,BR,1706009142
511,abou el hassan,36.4166,1.1962,11.69,41,23,0.22,DZ,1706009143
512,jincheng,35.5022,112.8328,-6.96,55,33,4.08,CN,1706009144
513,flin flon,54.7682,-101.865,-18.79,96,97,3.71,CA,1706009146
514,sanming,26.2486,117.6186,1.25,87,76,1.08,CN,1706009147
515,viedma,-40.8135,-62.9967,26.14,28,0,9.83,AR,1706008599
516,lompoc,34.6391,-120.4579,13.77,89,100,5.66,US,1706009013
517,emporia,38.4039,-96.1817,1.11,93,100,0.0,US,1706008933
518,ashkasham,36.6833,71.5333,-6.24,59,15,1.68,AF,1706009151
519,san agustin de valle fertil,-30.6335,-67.4682,17.56,56,2,2.85,AR,1706009152
520,itagi,-14.1628,-40.0061,22.77,99,100,0.43,BR,1706009152
521,alajarvi,63.0,23.8167,1.11,97,100,5.72,FI,1706009153
522,zahedan,29.4963,60.8629,20.95,13,0,2.06,IR,1706009154
523,binzhou,37.3667,118.0167,-6.12,55,0,3.35,CN,1706009155
524,los frentones,-26.4077,-61.4137,20.86,71,0,2.41,AR,1706009156
525,cururupu,-1.8283,-44.8683,27.22,83,60,2.25,BR,1706009156
526,enshi,30.3,109.4833,1.57,71,72,0.79,CN,1706009157
527,nouadhibou,20.931,-17.0347,23.99,35,100,6.17,MR,1706009158
528,zemio,5.0314,25.1361,37.38,12,88,2.02,CF,1706009159
529,ndjole,-0.1783,10.7649,29.85,65,80,1.23,GA,1706009160
530,galesong,-5.3166,119.3661,26.01,81,97,4.53,ID,1706009161
531,amarnath,19.2,73.1667,27.78,13,7,3.06,IN,1706009161
532,vol'sk,52.0333,47.3833,-15.72,87,18,1.58,RU,1706009162
533,pachino,36.7186,15.0907,13.07,49,51,2.18,IT,1706009163
534,whakatane,-37.9585,176.9854,18.76,91,28,4.03,NZ,1706008919
535,jora,26.3333,77.8167,17.01,27,0,2.24,IN,1706009164
536,undurkhaan,47.3194,110.6556,-18.24,83,2,2.21,MN,1706009165
537,gamba,-2.65,10.0,25.77,85,87,1.58,GA,1706009166
538,dongola,19.1667,30.4833,27.39,18,15,6.32,SD,1706009167
539,akcaabat,41.0212,39.5715,5.93,75,75,1.54,TR,1706009168
540,lieksa,63.3167,30.0167,1.35,92,100,8.07,FI,1706009169
541,canela,-29.3656,-50.8156,17.38,85,77,0.45,BR,1706008930
542,kovernino,57.1253,43.8142,-7.02,85,100,6.84,RU,1706009171
543,sitia,35.2,26.0986,15.55,64,83,11.63,GR,1706009171
544,birao,10.2849,22.7882,34.71,6,6,3.5,CF,1706009172
545,kikwit,-5.041,18.8162,23.5,87,100,0.19,CD,1706009174
546,marksville,31.128,-92.0662,16.03,99,100,3.51,US,1706009175
547,shalqar,47.8333,59.6,-7.19,94,89,3.82,KZ,1706009176
548,mumbwa,-14.9783,27.0619,25.5,68,81,2.34,ZM,1706009177
549,tidjikja,18.5564,-11.4271,22.95,17,76,11.54,MR,1706009178
550,paradip garh,20.3167,86.6167,21.62,53,9,4.77,IN,1706009179
551,temiskaming shores,47.4938,-79.7153,-13.11,89,100,3.31,CA,1706009180
552,leer,53.2316,7.461,7.78,88,65,7.38,DE,1706008974
553,yerofey pavlovich,53.9667,121.9667,-18.38,97,99,1.53,RU,1706009181
554,al matlin,37.2452,10.05,13.77,76,86,14.22,TN,1706009182
555,wewak,-3.5534,143.6268,26.78,86,100,8.42,PG,1706009183
556,labuan bajo,-8.4964,119.8877,26.2,88,92,0.89,ID,1706009183
557,punta del este,-34.9667,-54.95,21.04,76,20,1.54,UY,1706009103
558,tinogasta,-28.0632,-67.5649,21.9,56,73,1.43,AR,1706009185
559,tadine,-21.55,167.8833,26.03,81,100,1.79,NC,1706009186
560,portales,34.1862,-103.3344,1.74,76,85,1.02,US,1706009187
561,olyokminsk,60.3736,120.4264,-9.19,84,96,3.72,RU,1706009187
562,mulki,13.1,74.8,32.6,45,20,5.14,IN,1706009188
563,timbuktu,16.7735,-3.0074,25.48,14,37,8.24,ML,1706009189
564,arteche,12.2645,125.4048,25.31,85,74,2.55,PH,1706009190
565,shalya,57.2471,58.7298,-13.65,87,25,3.67,RU,1706009191
