City_ID,City,Lat,Lng,Max Temp,Humidity,Cloudiness,Wind Speed,Country,Date
0,flying fish cove,-10.4217,105.6791,26.82,89,75,3.09,CX,1705924468
1,bardai,11.65,7.2333,31.46,5,3,6.46,NG,1705924469
2,olinda,-8.0089,-34.8553,28.85,74,40,2.06,BR,1705924470
3,port-aux-francais,-49.35,70.2167,6.34,81,93,11.78,TF,1705924203
4,longyearbyen,78.2186,15.6401,-9.09,67,20,10.29,SJ,1705924471
5,jinhua,29.1078,119.6547,-1.71,80,100,1.81,CN,1705924472
6,nadym,65.5333,72.5167,-7.53,93,100,9.9,RU,1705924473
7,apolinario saravia,-24.4328,-63.9954,18.42,96,100,3.76,AR,1705924473
8,eket,4.6412,7.9209,34.46,41,39,3.02,NG,1705924474
9,bandon,51.7469,-8.7425,8.77,72,53,9.81,IE,1705924475
10,albany,42.6001,-73.9662,-8.69,87,9,0.45,US,1705924475
11,kodiak,57.79,-152.4072,-3.27,80,100,10.29,US,1705924476
12,ilulissat,69.2167,-51.1,-10.99,67,75,7.72,GL,1705924476
13,mitu,1.1983,-70.1733,24.25,83,69,0.81,CO,1705924477
14,aasiaat,68.7098,-52.8699,-15.35,96,100,4.27,GL,1705924477
15,adamstown,-25.066,-130.1015,24.32,81,100,3.91,PN,1705924478
16,bredasdorp,-34.5322,20.0403,19.06,70,100,7.87,ZA,1705924479
17,kapuskasing,49.4169,-82.4331,-4.0,80,100,6.17,CA,1705924479
18,hermanus,-34.4187,19.2345,19.14,76,100,8.63,ZA,1705924480
19,chonchi,-42.6128,-73.8092,17.84,76,7,2.48,CL,1705924480
20,lihue,21.9789,-159.3672,22.58,87,20,4.12,US,1705924482
21,bethel,41.3712,-73.414,-5.84,78,0,0.89,US,1705924323
22,las heras,-46.5419,-68.9359,20.77,40,18,5.15,AR,1705924439
23,ancud,-41.8697,-73.8203,15.41,74,0,0.47,CL,1705924483
24,collie,-33.3667,116.15,18.42,62,0,3.08,AU,1705924484
25,sierra grande,-41.606,-65.3557,25.84,35,0,7.17,AR,1705924485
26,talnakh,69.4865,88.3972,-10.44,94,100,8.83,RU,1705924485
27,itoman,26.1247,127.6694,17.43,72,75,11.83,JP,1705924486
28,junin de los andes,-39.9504,-71.0694,23.96,25,0,0.74,AR,1705924486
29,edinburgh of the seven seas,-37.0676,-12.3116,19.17,87,71,9.75,SH,1705924487
30,georgetown,5.4112,100.3354,27.96,78,20,3.6,MY,1705924487
31,carbonear,47.7332,-53.2148,-1.53,82,90,6.93,CA,1705924488
32,smithers,54.7804,-127.1743,-1.82,74,100,2.06,CA,1705924489
33,carutapera,-1.195,-46.02,28.45,77,53,3.27,BR,1705924489
34,puerto natales,-51.7236,-72.4875,18.25,55,75,6.17,CL,1705924490
35,callao,-12.0667,-77.15,23.73,83,100,3.6,PE,1705924490
36,necochea,-38.5473,-58.7368,23.97,41,38,5.36,AR,1705924491
37,sao joao da barra,-21.6403,-41.0511,27.05,77,24,7.72,BR,1705924491
38,tiksi,71.6872,128.8694,-28.01,92,100,11.59,RU,1705924492
39,gidole,5.65,37.3667,22.03,37,75,1.15,ET,1705924492
40,mutuali,-14.8706,37.0044,21.54,97,100,1.55,MZ,1705924493
41,blackmans bay,-43.0167,147.3167,12.07,67,55,0.84,AU,1705924201
42,stanley,54.868,-1.6985,7.06,70,75,11.83,GB,1705924494
43,zelenogradsk,54.9589,20.4767,3.03,87,100,8.0,RU,1705924495
44,ushuaia,-54.8,-68.3,11.81,76,20,14.92,AR,1705924256
45,peace river,56.2501,-117.286,-14.64,89,100,3.09,CA,1705924206
46,macusani,-14.0833,-70.4333,5.48,78,49,1.21,PE,1705924497
47,sochi,43.6,39.7303,6.05,75,21,2.54,RU,1705924497
48,nako,31.8814,78.627,-1.77,20,58,2.86,IN,1705924498
49,port lincoln,-34.7333,135.8667,20.09,70,1,5.05,AU,1705924498
50,palikir - national government center,6.9248,158.1611,27.41,83,100,4.12,FM,1705924499
51,waitangi,-43.9535,-176.5597,17.68,96,100,5.81,NZ,1705924499
52,odda,60.0691,6.5457,8.76,98,100,16.05,NO,1705924500
53,afaahiti,-17.75,-149.2833,24.93,82,88,8.05,PF,1705924500
54,polyarnyy,69.1989,33.4478,-7.31,92,100,6.26,RU,1705924501
55,quang ngai,15.1167,108.8,22.25,86,95,2.05,VN,1705924502
56,port alfred,-33.5906,26.891,24.54,77,72,3.58,ZA,1705924502
57,val-d'or,48.1002,-77.7828,-4.95,93,100,5.66,CA,1705924503
58,hadibu,12.65,54.0333,25.26,64,90,7.46,YE,1705924503
59,hawera,-39.5917,174.2833,18.46,95,32,2.77,NZ,1705924504
60,papatowai,-46.5619,169.4708,13.73,99,96,1.85,NZ,1705924505
61,iqaluit,63.7506,-68.5145,-21.84,76,40,1.54,CA,1705924505
62,west island,-12.1568,96.8225,27.99,89,75,2.57,CC,1705924506
63,st. john's,47.5649,-52.7093,-1.13,79,75,10.29,CA,1705924506
64,mata-utu,-13.2816,-176.1745,28.64,77,90,1.62,WF,1705924287
65,mar del plata,-38.0023,-57.5575,23.07,74,0,7.6,AR,1705924508
66,klaksvik,62.2266,-6.589,4.51,97,100,8.08,FO,1705924508
67,east london,-33.0153,27.9116,26.52,69,75,7.72,ZA,1705924509
68,grytviken,-54.2811,-36.5092,2.86,98,100,1.91,GS,1705924509
69,praia da vitoria,38.7333,-27.0667,18.14,88,40,11.01,PT,1705924510
70,calvinia,-31.4707,19.776,32.04,15,1,5.14,ZA,1705924510
71,nar'yan-mar,67.6713,53.087,-24.38,98,16,2.68,RU,1705924511
72,papao,-17.75,-149.55,25.82,74,67,8.55,PF,1705924512
73,golfito,8.639,-83.166,22.64,75,76,1.59,CR,1705924512
74,tulun,54.5611,100.5792,-19.24,99,100,1.48,RU,1705924513
75,bilibino,68.0546,166.4372,-21.76,68,100,5.53,RU,1705924513
76,ghadamis,30.1337,9.5007,13.79,45,5,5.22,LY,1705924514
77,jaguaquara,-13.5306,-39.9708,28.07,58,99,1.5,BR,1705924514
78,codrington,-38.2667,141.9667,13.26,75,44,5.39,AU,1705924515
79,mili,6.0815,171.735,27.49,83,33,7.82,MH,1705924516
80,tolanaro,-25.0319,46.9987,30.04,70,20,8.23,MG,1705924516
81,turbat,26.0023,63.044,27.63,12,0,2.42,PK,1705924517
82,diamantino,-14.4086,-56.4461,27.34,78,76,2.6,BR,1705924517
83,novyy urengoy,66.0833,76.6333,-7.59,92,100,9.41,RU,1705924518
84,grand-lahou,5.1367,-5.0242,29.93,70,18,3.1,CI,1705924518
85,prince rupert,54.3161,-130.3201,4.83,100,100,1.54,CA,1705924519
86,alice springs,-23.7,133.8833,33.75,53,91,5.14,AU,1705924520
87,lebu,-37.6167,-73.65,15.25,74,3,5.19,CL,1705924520
88,haiku-pauwela,20.9219,-156.3051,21.69,87,100,2.57,US,1705924521
89,margaret river,-33.95,115.0667,18.23,70,1,4.38,AU,1705924521
90,selebi-phikwe,-21.979,27.8498,32.46,26,0,2.59,BW,1705924522
91,meadow lake,34.8014,-106.5436,5.22,87,98,0.3,US,1705924522
92,saurimo,-9.6608,20.3916,24.72,67,99,2.09,AO,1705924523
93,selfoss,63.9331,-20.9971,-10.31,84,32,2.39,IS,1705924524
94,tambo,-14.8,-73.9167,6.8,78,82,1.76,PE,1705924524
95,thompson,55.7435,-97.8558,-24.91,77,0,3.6,CA,1705924525
96,gorontalo,0.5412,123.0595,25.58,92,99,1.95,ID,1705924525
97,yaren,-0.5472,166.916,29.43,72,100,7.05,NR,1705924526
98,arish,31.1316,33.7984,22.1,53,0,3.6,EG,1705924526
99,punta arenas,-53.15,-70.9167,15.01,72,0,14.92,CL,1705924527
100,ngorongoro,-3.2397,35.4875,16.84,77,99,1.15,TZ,1705924528
101,hawaiian paradise park,19.5933,-154.9731,22.24,94,75,1.54,US,1705924528
102,san mariano,7.5,126.0,22.9,92,96,1.28,PH,1705924529
103,arraial do cabo,-22.9661,-42.0278,24.92,88,75,3.09,BR,1705924529
104,lompoc,34.6391,-120.4579,14.22,87,100,6.69,US,1705924530
105,gaillimh,53.2719,-9.0489,7.4,76,32,13.44,IE,1705924531
106,pisco,-13.7,-76.2167,22.03,94,100,0.51,PE,1705924531
107,ouesso,1.6136,16.0517,39.16,11,1,1.41,CG,1705924532
108,axim,4.8699,-2.2405,30.46,68,15,3.34,GH,1705924532
109,atafu village,-8.5421,-172.5159,29.44,73,84,3.88,TK,1705924533
110,iranduba,-3.2847,-60.1861,28.18,85,99,1.02,BR,1705924534
111,vyksa,55.3175,42.1744,-11.1,93,77,3.82,RU,1705924534
112,lexington,37.9887,-84.4777,-5.06,71,0,2.57,US,1705924072
113,jinxiang,27.4327,120.6062,1.4,94,100,7.01,CN,1705924535
114,bubaque,11.2833,-15.8333,25.83,56,43,1.28,GW,1705924536
115,isafjordur,66.0755,-23.124,-4.98,74,100,2.06,IS,1705924536
116,yarmouth,41.7057,-70.2286,-3.82,68,0,4.47,US,1705924537
117,utrik,11.2278,169.8474,26.41,79,72,9.22,MH,1705924537
118,ust-nera,64.5667,143.2,-39.7,97,95,2.63,RU,1705924538
119,hithadhoo,-0.6,73.0833,29.04,76,40,6.24,MV,1705924539
120,sungurlu,40.1675,34.3739,2.45,47,15,5.1,TR,1705924539
121,bhisho,-32.8472,27.4422,23.35,66,51,6.65,ZA,1705924540
122,remire-montjoly,4.9167,-52.2667,28.02,78,0,6.17,GF,1705924540
123,santa ana de yacuma,-13.75,-65.4333,25.97,83,75,0.0,BO,1705924541
124,uturoa,-16.7333,-151.4333,27.28,79,72,5.44,PF,1705924542
125,port mathurin,-19.6833,63.4167,28.45,86,47,10.24,MU,1705924543
126,qaqortoq,60.7167,-46.0333,-12.73,74,95,3.39,GL,1705924543
127,wailua homesteads,22.0669,-159.378,22.24,87,20,4.12,US,1705924544
128,gereshk,31.8209,64.5701,16.2,18,0,3.23,AF,1705924544
129,gulf shores,30.246,-87.7008,4.03,70,20,4.12,US,1705924545
130,fayroz koh,34.5195,65.2509,4.54,24,35,1.16,AF,1705924545
131,anadyr,64.75,177.4833,-18.72,84,0,3.0,RU,1705924546
132,jolo,6.05,121.0167,25.53,89,100,2.61,PH,1705924546
133,tolga,34.7222,5.3785,13.45,43,3,2.48,DZ,1705924547
134,midvagur,62.0511,-7.1939,4.46,93,75,2.57,FO,1705924547
135,udachny,66.4167,112.4,-22.58,98,96,2.06,RU,1705924548
136,puerto ayora,-0.7393,-90.3518,25.31,99,45,1.34,EC,1705924549
137,roja,57.5,22.8167,1.42,88,100,10.97,LV,1705924549
138,tanjungagung,-3.9333,103.8,25.49,87,100,1.15,ID,1705924550
139,kununurra,-15.7667,128.7333,26.99,94,75,2.57,AU,1705924550
140,aykhal,66.0,111.5,-20.54,99,87,3.11,RU,1705924551
141,igarka,67.4667,86.5833,-8.86,94,100,9.36,RU,1705924551
142,ar ruseris,11.8659,34.3869,34.72,18,42,2.85,SD,1705924552
143,puerto carreno,6.189,-67.4859,24.99,78,0,4.12,CO,1705924552
144,jamestown,42.097,-79.2353,-7.94,93,0,4.12,US,1705924374
145,kailua-kona,19.6406,-155.9956,23.06,79,100,1.54,US,1705924553
146,san javier,37.8063,-0.8374,18.32,55,0,3.6,ES,1705924554
147,port douglas,-16.4833,145.4667,27.59,88,100,1.01,AU,1705924555
148,labytnangi,66.6572,66.4183,-10.13,96,100,2.68,RU,1705924555
149,hagi,34.4,131.4167,2.52,77,100,9.37,JP,1705924556
150,agat village,13.3886,144.6585,25.06,89,0,2.57,GU,1705924556
151,olonkinbyen,70.9221,-8.7187,-6.0,81,100,7.75,SJ,1705924557
152,south hedland,-20.4089,118.5983,27.96,83,75,6.69,AU,1705924557
153,beichengqu,40.4394,113.1536,-19.79,85,8,2.07,CN,1705924558
154,sur,22.5667,59.5289,24.1,58,15,3.81,OM,1705924558
155,hasaki,35.7333,140.8333,12.38,66,99,6.85,JP,1705924559
156,invercargill,-46.4,168.35,14.45,93,100,4.47,NZ,1705924560
157,hanceville,34.0607,-86.7675,-0.75,46,3,2.69,US,1705924560
158,gueckedou,8.6667,-10.25,34.95,9,31,2.9,GN,1705924561
159,college,64.8569,-147.8028,-36.01,51,0,1.54,US,1705924561
160,dongola,19.1667,30.4833,30.27,9,0,4.22,SD,1705924562
161,jatai,-17.8814,-51.7144,25.21,76,75,2.23,BR,1705924562
162,guerrero negro,27.9769,-114.0611,15.84,87,100,1.97,MX,1705924442
163,queenstown,-31.8976,26.8753,27.09,35,2,5.66,ZA,1705924563
164,nantucket,41.2835,-70.0995,-4.92,58,0,5.14,US,1705924489
165,kirakira,-10.4544,161.9205,26.94,84,99,1.27,SB,1705924564
166,ribeira grande,38.5167,-28.7,18.22,82,75,8.75,PT,1705924565
167,xining,36.6167,101.7667,-9.64,54,94,3.64,CN,1705924566
168,princeville,45.7668,-61.2985,-4.82,88,100,5.14,CA,1705924566
169,gebeit,21.0667,36.3167,29.42,29,0,2.54,SD,1705924567
170,puerto san jose,13.9256,-90.8244,23.34,63,37,1.65,GT,1705924567
171,negombo,7.2083,79.8358,33.03,52,20,5.66,LK,1705924568
172,nemuro,43.3236,145.575,-0.73,71,100,5.49,JP,1705924569
173,whitehorse,60.7161,-135.0538,-21.5,73,100,2.57,CA,1705924365
174,kourou,5.1552,-52.6478,28.03,83,61,5.0,GF,1705924570
175,sarangani,5.4033,125.4636,27.47,79,96,8.04,PH,1705924570
176,garoowe,8.4054,48.4845,32.22,19,52,9.68,SO,1705924572
177,crane,31.3974,-102.3501,4.78,76,100,2.21,US,1705924572
178,zadawa,11.4496,10.3672,32.21,6,4,4.37,NG,1705924573
179,cabo san lucas,22.8909,-109.9124,19.73,80,100,1.34,MX,1705923895
180,illizi,26.4833,8.4667,17.89,23,4,5.67,DZ,1705924574
181,yellowknife,62.456,-114.3525,-33.17,75,20,0.0,CA,1705924574
182,gagarawa,12.4074,9.5277,31.71,6,19,5.15,NG,1705924575
183,atakent,40.8464,68.5067,9.83,39,100,2.12,KZ,1705924576
184,kamloops,50.6665,-120.3192,2.54,89,75,5.66,CA,1705924410
185,frydlant nad ostravici,49.5928,18.3597,5.16,35,100,19.22,CZ,1705924577
186,sanming,26.2486,117.6186,3.37,99,100,1.38,CN,1705924577
187,tofol,5.3248,163.0078,27.81,82,99,8.63,FM,1705924578
188,port elizabeth,-33.918,25.5701,23.51,78,100,5.14,ZA,1705924578
189,dudinka,69.4058,86.1778,-10.18,95,100,4.02,RU,1705924579
190,nirmali,26.3167,86.5833,16.43,36,2,2.16,IN,1705924580
191,hailey,43.5196,-114.3153,2.11,83,100,1.34,US,1705924580
192,port blair,11.6667,92.75,27.02,61,20,3.6,IN,1705924581
193,condoto,5.0935,-76.6497,24.7,98,95,0.73,CO,1705924581
194,tura,25.5198,90.2201,14.35,61,56,1.26,IN,1705924582
195,north bend,43.4065,-124.2243,12.14,94,100,6.17,US,1705924582
196,baiti,13.745,-14.7482,35.37,5,73,6.52,SN,1705924583
197,ola,59.5833,151.2833,-31.07,98,84,1.77,RU,1705924584
198,nadi,-17.8,177.4167,26.0,94,75,3.09,FJ,1705924584
199,san antonio de pale,-1.4014,5.6325,27.53,81,20,3.32,GQ,1705924585
200,iskateley,67.6803,53.1512,-24.43,98,19,2.68,RU,1705924585
201,holualoa,19.6228,-155.9522,20.99,78,100,1.54,US,1705924489
202,vilhena,-12.7406,-60.1458,22.12,100,75,4.63,BR,1705924587
203,inarajan village,13.2736,144.7484,25.08,93,98,7.45,GU,1705924587
204,ligao,13.2403,123.5325,23.6,92,82,1.93,PH,1705924588
205,revda,56.801,59.9303,-14.01,93,95,3.95,RU,1705924588
206,beipiao,41.7919,120.7792,-14.68,47,2,4.88,CN,1705924589
207,ocara,-4.4908,-38.5967,29.74,63,12,2.94,BR,1705924590
208,lazaro cardenas,17.9583,-102.2,22.54,81,23,1.8,MX,1705924590
209,coalinga,36.1397,-120.3602,11.14,95,100,1.96,US,1705924591
210,avarua,-21.2078,-159.775,24.03,88,100,1.03,CK,1705924592
211,selkirk,50.1436,-96.8845,-10.52,90,100,2.68,CA,1705924592
212,tazovsky,67.4667,78.7,-8.28,94,100,7.83,RU,1705924593
213,geraldton,-28.7667,114.6,22.23,73,0,9.77,AU,1705924594
214,praya,14.9215,-23.5087,24.3,73,75,9.26,CV,1705924594
215,ta`u,-14.2336,-169.5144,28.69,71,80,4.01,AS,1705924595
216,ceeldheer,3.8488,47.1806,31.16,46,65,11.42,SO,1705924596
217,zouerate,22.7187,-12.4521,26.08,8,100,6.52,MR,1705924596
218,aldinga beach,-35.2793,138.4604,23.9,58,2,4.95,AU,1705924450
219,khanty-mansiysk,61.0042,69.0019,-6.94,73,40,7.15,RU,1705924597
220,tindouf,27.6711,-8.1474,18.25,29,34,8.23,DZ,1705924598
221,klyuchi,52.2667,79.1667,-17.56,95,5,2.27,RU,1705924598
222,carnarvon,-24.8667,113.6333,23.95,74,66,14.44,AU,1705924599
223,kuala sungai baru,2.3594,102.0353,30.02,81,85,3.0,MY,1705924600
224,tromso,69.6496,18.957,-5.99,86,0,2.57,NO,1705924600
225,sinop,41.7711,34.8709,0.24,90,99,2.82,TR,1705924601
226,santa cruz,-17.8,-63.1667,26.03,89,75,7.2,BO,1705924601
227,kapit,2.0167,112.9333,24.72,97,94,0.62,MY,1705924602
228,puerto aysen,-45.4,-72.7,13.71,97,96,0.47,CL,1705924602
229,san patricio,28.017,-97.5169,12.92,98,100,2.33,US,1705924603
230,porbandar,21.6422,69.6093,24.68,47,26,6.64,IN,1705924604
231,yokadouma,3.5167,15.05,37.94,9,2,1.2,CM,1705924604
232,portland,45.5234,-122.6762,9.76,94,100,8.23,US,1705923906
233,tshikapa,-6.4167,20.8,21.82,97,100,2.12,CD,1705924605
234,meulaboh,4.1363,96.1285,26.53,84,25,1.35,ID,1705924606
235,staraya russa,57.9944,31.3608,-3.9,89,87,8.61,RU,1705924606
236,saldanha,-33.0117,17.9442,31.03,73,67,11.18,ZA,1705924607
237,saipan,15.1355,145.701,25.39,69,100,3.6,MP,1705924607
238,sterling,39.0062,-77.4286,-7.53,82,0,2.06,US,1705924500
239,arawa,-6.2132,155.5367,26.53,94,94,1.63,PG,1705924609
240,daru,-9.0763,143.2092,24.7,90,100,6.87,PG,1705924609
241,yarega,63.4354,53.5765,-20.63,97,39,2.59,RU,1705924610
242,timimoun,29.2639,0.231,17.21,51,0,8.75,DZ,1705924610
243,kalmunai,7.4167,81.8167,26.9,73,63,4.98,LK,1705924611
244,badger,64.8,-147.5333,-36.05,61,0,1.54,US,1705924611
245,vanimo,-2.6741,141.3028,26.01,91,100,4.3,PG,1705924612
246,la passe,45.5549,-0.8967,11.68,92,100,10.0,FR,1705924612
247,happy valley-goose bay,53.3168,-60.3315,-18.83,65,20,3.09,CA,1705924613
248,castillos,-34.1667,-53.8333,22.18,53,4,3.61,UY,1705924614
249,constantia,44.1833,28.65,-4.62,70,86,2.43,RO,1705924615
250,zag,46.9441,99.165,-27.93,84,1,2.01,MN,1705924615
251,argo,37.6333,22.7333,9.88,50,68,8.19,GR,1705924616
252,santa luzia,-19.7697,-43.8514,27.1,71,0,3.6,BR,1705924616
253,urengoy,65.9667,78.3667,-6.94,93,100,9.87,RU,1705924617
254,antofagasta,-23.65,-70.4,19.6,75,69,1.61,CL,1705924318
255,sabha,27.0377,14.4283,16.13,40,13,4.98,LY,1705924618
256,ankazoabo,-22.2833,44.5167,30.44,60,99,2.1,MG,1705924618
257,ribeirao,-8.5144,-35.3778,31.08,52,39,4.13,BR,1705924619
258,tangalle,6.024,80.7911,29.09,78,18,6.08,LK,1705924619
259,el calafate,-50.3408,-72.2768,13.13,82,96,1.52,AR,1705924620
260,hamilton,39.1834,-84.5333,-5.52,75,75,3.6,US,1705924580
261,pedregal,8.3667,-82.4333,25.05,88,0,1.03,PA,1705924621
262,souillac,-20.5167,57.5167,31.21,74,75,5.66,MU,1705924622
263,ketchikan,55.3422,-131.6461,5.99,93,100,2.06,US,1705924622
264,nova vicosa,-17.8919,-39.3719,28.46,69,100,0.46,BR,1705924623
265,tidjikja,18.5564,-11.4271,29.85,5,100,10.17,MR,1705924624
266,ponta delgada,37.7333,-25.6667,18.44,88,75,5.66,PT,1705924625
267,salalah,17.0151,54.0924,28.4,22,100,5.66,OM,1705924626
268,chegdomyn,51.1167,133.0167,-33.22,99,18,1.22,RU,1705924626
269,roxas,11.5853,122.7511,25.08,81,100,5.09,PH,1705924627
270,visakhapatnam,17.69,83.2093,24.94,83,40,5.14,IN,1705924628
271,neiafu,-18.65,-173.9833,27.73,83,86,3.15,TO,1705924628
272,enewetak,11.3474,162.3373,26.36,76,79,8.73,MH,1705924629
273,breclav,48.759,16.882,3.38,46,91,6.3,CZ,1705924629
274,pooler,32.1155,-81.2471,3.86,66,20,3.09,US,1705924379
275,colonia,50.9333,6.95,12.25,76,20,7.72,DE,1705924346
276,segezha,63.7415,34.3222,-4.65,88,97,7.41,RU,1705924631
277,antalaha,-14.9003,50.2788,28.55,71,100,2.3,MG,1705924632
278,ciudad acuna,29.3232,-100.9522,6.32,90,100,4.12,MX,1705924633
279,kasama,-10.2129,31.1808,20.44,86,100,4.07,ZM,1705924634
280,nan,18.8333,100.6667,25.01,57,0,1.03,TH,1705924635
281,menongue,-14.6585,17.691,29.29,38,42,2.4,AO,1705924635
282,trondheim,63.4305,10.3951,6.05,71,100,3.13,NO,1705924636
283,el charco,2.4769,-78.1105,24.71,98,98,1.75,CO,1705924637
284,taylorville,39.5489,-89.2945,-1.73,81,100,6.17,US,1705924637
285,agua dulce,18.1333,-94.1333,19.88,90,100,3.8,MX,1705924638
286,puerto armuelles,8.2833,-82.8667,24.99,85,72,1.79,PA,1705924638
287,vilyuchinsk,52.9306,158.4028,-7.85,89,71,2.65,RU,1705924639
288,sitka,57.0531,-135.33,3.94,93,100,3.09,US,1705924640
289,ivanivka,46.7208,34.553,1.32,49,6,3.01,UA,1705924640
290,kuta,-8.7233,115.1723,28.97,79,20,8.23,ID,1705924641
291,sisimiut,66.9395,-53.6735,-8.75,80,100,9.3,GL,1705924641
292,sile,41.1754,29.6133,8.09,60,64,2.24,TR,1705924642
293,gerena,37.5561,-6.1621,13.84,77,50,2.26,ES,1705924643
294,safaga,26.7292,33.9365,25.15,36,9,1.19,EG,1705924383
295,jebrail,39.3992,47.0283,2.12,91,100,4.39,AZ,1705924644
296,veraval,20.9,70.3667,25.78,43,74,6.06,IN,1705924644
297,naze,28.3667,129.4833,12.51,75,95,9.83,JP,1705924645
298,corinto,37.9407,22.9573,9.94,50,89,10.06,GR,1705924646
299,mount isa,-20.7333,139.5,28.87,70,78,2.57,AU,1705924646
300,neryungri,56.6709,124.6491,-12.78,94,100,3.64,RU,1705924647
301,jumla,29.2747,82.1838,4.51,62,81,1.85,NP,1705924647
302,nishinoomote,30.7333,131.0,10.54,74,100,15.5,JP,1705924648
303,long beach,33.767,-118.1892,15.2,97,100,4.63,US,1705924649
304,cockburn town,21.4612,-71.1419,24.47,75,69,11.6,TC,1705924649
305,las lomitas,-24.7096,-60.593,22.96,77,85,2.64,AR,1705924650
306,as salamiyah,35.0113,37.0532,18.09,43,42,2.42,SY,1705924650
307,santa terezinha,-29.9002,-50.0904,23.19,60,100,5.39,BR,1705924651
308,kibaha,-6.7667,38.9167,28.22,74,97,3.35,TZ,1705924652
309,maues,-3.3836,-57.7186,26.05,92,100,1.27,BR,1705924652
310,greymouth,-42.4667,171.2,16.62,94,44,3.28,NZ,1705924426
311,gizo,-8.103,156.8419,28.33,81,79,4.71,SB,1705924654
312,tenno,39.9,139.9667,4.56,90,100,6.11,JP,1705924654
313,cloquet,46.7216,-92.4594,-7.11,72,100,2.57,US,1705924655
314,saint-philippe,-21.3585,55.7679,29.77,73,96,4.09,RE,1705924655
315,richards bay,-28.783,32.0377,27.91,62,23,4.72,ZA,1705924656
316,el granada,37.5027,-122.4694,14.36,96,100,5.14,US,1705924657
317,constitucion,-35.3333,-72.4167,18.27,63,0,2.16,CL,1705924657
318,sao vicente,-23.9631,-46.3919,26.66,66,75,1.54,BR,1705924658
319,al mutayrifi,25.4788,49.5576,25.19,16,1,1.16,SA,1705924659
320,winslow,35.0242,-110.6974,4.1,87,100,1.54,US,1705924586
321,baie-saint-paul,47.4411,-70.4986,-9.13,92,97,3.31,CA,1705924660
322,kedougou,12.5579,-12.1743,31.32,19,0,2.06,SN,1705924660
323,jesus maria,-30.9815,-64.0942,23.62,67,87,1.38,AR,1705924661
324,qarazhal,48.0078,70.7903,-11.98,78,16,4.61,KZ,1705924661
325,langepas,61.2544,75.2124,-6.92,82,100,8.28,RU,1705924662
326,tara,56.8944,74.371,-11.48,85,100,4.83,RU,1705924663
327,gisborne,-38.6533,178.0042,18.81,94,97,2.06,NZ,1705924663
328,margate,51.3813,1.3862,11.5,68,36,6.71,GB,1705924664
329,la'ie,21.6477,-157.9253,25.98,87,34,0.45,US,1705924664
330,hell-ville,-13.4,48.2667,26.93,80,75,3.09,MG,1705924665
331,fenyi,27.8112,114.6681,-1.28,93,100,2.6,CN,1705924665
332,nyurba,63.2842,118.3319,-18.58,99,97,2.1,RU,1705924666
333,tlahualilo de zaragoza,26.1167,-103.45,11.14,77,98,4.2,MX,1705924666
334,dadukou,26.5479,101.7054,9.64,59,14,0.35,CN,1705924667
335,abaete,-19.16,-45.4458,25.24,75,35,1.21,BR,1705924667
336,moussoro,13.6408,16.4901,32.23,6,15,4.47,TD,1705924668
337,grand baie,-20.0182,57.5802,31.36,73,90,3.13,MU,1705924409
338,vilyuysk,63.7553,121.6247,-30.29,99,98,1.37,RU,1705924669
339,pangody,65.85,74.4859,-7.7,93,100,9.29,RU,1705924670
340,xianyang,34.3378,108.7026,-6.42,45,0,3.0,CN,1705924670
341,oyama,36.3,139.8,9.82,78,99,0.86,JP,1705924671
342,alofi,-19.0595,-169.9187,24.94,100,96,2.57,NU,1705924671
343,lagoa,39.05,-27.9833,16.91,89,90,7.48,PT,1705924672
344,orda,57.1951,56.9091,-18.25,97,20,2.78,RU,1705924673
345,baykalovo,57.3981,63.7684,-10.39,88,100,3.98,RU,1705924674
346,sinabang,2.4803,96.3801,27.84,78,33,1.55,ID,1705924674
347,kapa'a,22.0752,-159.319,22.18,87,20,4.12,US,1705924675
348,ilhabela,-23.7781,-45.3581,25.61,76,26,1.86,BR,1705924675
349,keflavik,64.0049,-22.5624,-5.05,73,40,6.69,IS,1705924527
350,phalodi,27.1333,72.3667,23.25,18,10,0.94,IN,1705924676
351,hawkesbury,45.6001,-74.616,-4.84,95,96,3.11,CA,1705924677
352,godda,24.8333,87.2167,15.72,35,30,2.17,IN,1705924677
353,nova sintra,14.8667,-24.7167,20.44,78,60,7.92,CV,1705924678
354,tobelo,1.7284,128.0095,24.22,91,100,2.14,ID,1705924678
355,carlsbad,33.1581,-117.3506,15.4,93,100,5.36,US,1705924679
356,pandan,14.0453,124.1694,25.78,84,65,4.41,PH,1705924679
357,anajatuba,-3.2644,-44.6197,27.83,82,77,2.29,BR,1705924680
358,susuman,62.7833,148.1667,-45.01,98,85,1.79,RU,1705924681
359,fort bragg,35.139,-79.006,-3.99,80,0,0.0,US,1705924681
360,bengkulu,-3.8004,102.2655,26.96,77,100,1.15,ID,1705924682
361,chancay,-11.5714,-77.2672,22.13,88,89,0.95,PE,1705924682
362,tsiombe,-25.3,45.4833,29.91,62,75,5.32,MG,1705924683
363,inirida,3.8653,-67.9239,26.26,72,78,0.73,CO,1705924683
364,kenora,49.8167,-94.4337,-9.46,92,100,2.06,CA,1705924684
365,matai,-8.3,31.5167,21.09,65,92,4.08,TZ,1705924684
366,oulmes,33.4258,-6.0014,14.79,28,0,0.97,MA,1705924685
367,wellington,-41.2866,174.7756,20.81,87,61,7.72,NZ,1705924686
368,puerto baquerizo moreno,-0.9,-89.6,24.91,90,59,4.48,EC,1705924686
369,pleasanton,37.6624,-121.8747,13.4,95,100,2.65,US,1705924687
370,darwin,-12.4611,130.8418,28.99,84,75,4.12,AU,1705924687
371,natchitoches,31.7668,-93.1335,4.47,93,100,4.63,US,1705924688
372,al muwayh,22.4333,41.7583,27.88,22,0,3.45,SA,1705924688
373,tabou,4.423,-7.3528,29.53,72,34,2.6,CI,1705924689
374,cukai,4.25,103.4167,25.0,93,88,2.91,MY,1705924689
375,magadan,59.5667,150.8,-32.1,98,66,1.68,RU,1705924690
376,inari,68.906,27.0288,-1.89,89,100,4.42,FI,1705924691
377,manay,7.215,126.5397,25.69,83,98,3.25,PH,1705924691
378,saint john,45.2727,-66.0677,-12.43,61,20,1.03,CA,1705924646
379,la sarre,48.8002,-79.1996,-5.27,87,100,6.43,CA,1705924453
380,zonguldak,41.25,31.8333,2.52,62,61,3.45,TR,1705924693
381,annau,37.8876,58.516,13.72,51,36,5.14,TM,1705924694
382,watsa,3.0372,29.5355,34.08,13,31,2.35,CD,1705924694
383,bela,25.9333,81.9833,15.0,35,3,0.88,IN,1705924695
384,floro,61.5996,5.0328,6.98,87,75,12.35,NO,1705924695
385,vorgashor,67.5833,63.95,-14.49,94,100,4.76,RU,1705924696
386,ferkessedougou,9.6,-5.2,36.26,6,19,3.68,CI,1705924696
387,fortuna,40.5982,-124.1573,12.03,96,100,0.0,US,1705924502
388,porto novo,6.4965,2.6036,32.9,31,31,1.96,BJ,1705924698
389,tubmanburg,6.8708,-10.8172,36.38,40,12,0.28,LR,1705924698
390,yola,9.2,12.4833,34.68,6,0,1.23,NG,1705924699
391,buenavista del norte,28.3746,-16.861,22.92,62,3,7.82,ES,1705924699
392,vadso,70.0744,29.7487,-4.91,86,75,4.12,NO,1705924700
393,al jawf,29.5,38.75,23.31,18,0,4.71,SA,1705924701
394,faya-largeau,17.9257,19.1043,29.11,9,22,9.61,TD,1705924701
395,el abiodh sidi cheikh,32.893,0.5484,13.27,35,0,3.42,DZ,1705924702
396,rasht,37.2808,49.5832,9.9,93,100,1.03,IR,1705924702
397,durban,-29.8579,31.0292,27.51,74,38,7.58,ZA,1705924654
398,lewistown,40.5992,-77.5714,-10.66,92,0,0.0,US,1705924704
399,marka,1.7159,44.7717,30.32,58,2,8.69,SO,1705924704
400,tadine,-21.55,167.8833,26.25,85,100,3.29,NC,1705924705
401,murzuq,25.9155,13.9184,17.72,42,0,5.03,LY,1705924705
402,springbok,-29.6643,17.8865,31.57,14,0,5.5,ZA,1705924706
403,lanzhou,36.0564,103.7922,-7.88,54,67,3.26,CN,1705924707
404,hammerfest,70.6634,23.6821,-3.75,74,20,3.6,NO,1705924707
405,koudougou,12.25,-2.3667,34.04,5,10,6.33,BF,1705924708
406,masterton,-40.9597,175.6575,18.27,99,87,1.51,NZ,1705924708
407,taoudenni,22.6783,-3.9836,24.86,18,96,9.1,ML,1705924709
408,mizdah,31.4451,12.9801,12.93,44,79,5.24,LY,1705924710
409,arkhangel'sk,64.5401,40.5433,-7.94,92,75,2.0,RU,1705924711
410,passo fundo,-28.2628,-52.4067,19.14,77,40,6.17,BR,1705924485
411,sambava,-14.2667,50.1667,27.22,78,100,1.12,MG,1705924712
412,al jahra',29.3375,47.6581,22.53,20,0,4.16,KW,1705924712
413,pamandzi,-12.7967,45.2794,27.88,78,75,11.32,YT,1705924713
414,albertina,-22.2008,-46.6158,22.76,68,13,1.13,BR,1705924714
415,christchurch,-43.5333,172.6333,19.95,84,16,3.6,NZ,1705924214
416,dhidhdhoo,6.8833,73.1,28.18,76,19,3.55,MV,1705924715
417,kingston,17.997,-76.7936,26.23,79,20,1.54,JM,1705924509
418,newman,37.3138,-121.0208,12.79,93,100,2.68,US,1705924716
419,eyl,7.9803,49.8164,28.35,51,18,11.93,SO,1705924717
420,sferracavallo,42.726,12.0956,11.35,40,4,1.39,IT,1705924717
421,kendari,-3.945,122.4989,26.29,88,83,0.4,ID,1705924718
422,ha long,20.9511,107.08,10.77,78,100,3.59,VN,1705924718
423,colares,38.7992,-9.4469,17.41,79,20,3.58,PT,1705924719
424,patnongon,10.9132,121.9937,26.64,75,82,2.0,PH,1705924720
425,felipe carrillo puerto,19.5833,-88.05,20.83,99,100,1.54,MX,1705924720
426,petropavlovsk-kamchatsky,53.0452,158.6483,-8.67,77,75,5.0,RU,1705924721
427,xai-xai,-25.0519,33.6442,28.9,57,0,4.7,MZ,1705924722
428,greenville,35.6127,-77.3663,-6.99,100,0,0.0,US,1705924319
429,springs,-26.25,28.4,33.57,50,21,4.49,ZA,1705924723
430,noumea,-22.2763,166.4572,25.99,86,100,2.46,NC,1705924364
431,lyubokhna,53.5033,34.3885,-8.93,90,98,4.31,RU,1705924724
432,imbituba,-28.24,-48.6703,23.25,77,98,3.35,BR,1705924724
433,alaghsas,17.0187,8.0168,29.94,6,66,8.75,NE,1705924523
434,jumelles,47.4351,-0.1037,12.21,90,99,8.82,FR,1705924726
435,pudozh,61.8099,36.5345,-8.36,95,92,4.47,RU,1705924726
436,port hedland,-20.3167,118.5667,28.03,83,75,6.69,AU,1705924682
437,guanambi,-14.2233,-42.7814,24.69,77,100,1.66,BR,1705924727
438,beykonak,36.3257,30.303,17.79,55,94,1.93,TR,1705924728
439,suva,-18.1416,178.4415,24.71,100,75,2.06,FJ,1705924728
440,uvira,-3.4067,29.1458,26.96,63,91,2.38,CD,1705924729
441,prainha,-1.8,-53.48,28.56,67,49,2.36,BR,1705924729
442,puerto deseado,-47.7503,-65.8938,21.0,38,6,7.41,AR,1705924731
443,rosario oeste,-14.8361,-56.4275,28.01,74,99,1.72,BR,1705924731
444,wurtulla,-26.7568,153.1256,27.25,89,32,3.13,AU,1705924732
445,bridgewater,44.3835,-64.5155,-8.18,86,5,3.6,CA,1705924732
446,la quiaca,-22.1024,-65.593,11.93,73,92,1.95,AR,1705924733
447,sinan,34.8262,126.1086,-3.94,77,100,15.42,KR,1705924733
448,howard springs,-12.497,131.047,28.95,86,46,4.07,AU,1705924734
449,dzhangala,49.2167,50.3333,-11.74,85,59,5.32,KZ,1705924734
450,qom,34.6401,50.8764,16.9,21,12,3.43,IR,1705924735
451,mount pearl,47.5166,-52.7813,-1.59,80,75,10.29,CA,1705924563
452,mandiana,10.6333,-8.6833,34.26,7,41,4.13,GN,1705924736
453,taksimo,56.3444,114.8794,-18.07,91,90,2.14,RU,1705924737
454,yengema,8.7167,-11.1667,35.37,9,30,1.54,SL,1705924737
455,bayganin,48.6947,55.8742,-3.32,94,100,5.66,KZ,1705924738
456,pacific grove,36.6177,-121.9166,14.06,90,100,3.09,US,1705924738
457,bulgan,48.8125,103.5347,-21.68,89,2,2.08,MN,1705924739
458,sao felix do xingu,-6.6447,-51.995,25.04,94,91,0.47,BR,1705924739
459,golyshmanovo,56.3979,68.3728,-8.17,90,100,4.52,RU,1705924740
460,labrador city,52.9463,-66.9114,-17.05,78,100,6.69,CA,1705924740
461,djibouti,11.5,42.5,25.79,51,70,8.2,DJ,1705924442
462,aksu,41.1231,80.2644,-4.19,41,18,2.38,CN,1705924742
463,chernomorskoye,45.5039,32.6997,2.21,67,45,3.62,UA,1705924742
464,nuuk,64.1835,-51.7216,-8.4,92,100,3.6,GL,1705924743
465,rio grande,-32.035,-52.0986,25.06,56,98,6.27,BR,1705924564
466,mejit,10.2753,170.8646,26.73,80,100,8.62,MH,1705924744
467,abashiri,44.0213,144.2697,-3.84,74,75,2.06,JP,1705924744
468,okha,53.5739,142.9478,-29.5,96,59,0.67,RU,1705924745
469,betio village,1.358,172.9211,30.02,75,79,4.19,KI,1705924745
470,hobyo,5.3505,48.5268,27.55,62,87,11.35,SO,1705924746
471,balsas,-7.5325,-46.0356,30.47,59,96,0.99,BR,1705924746
472,east islip,40.732,-73.1857,-4.43,74,0,2.57,US,1705924747
473,imeni morozova,59.9757,31.0376,-1.98,88,97,7.26,RU,1705924748
474,bechar,31.6167,-2.2167,14.18,38,0,1.03,DZ,1705924748
475,kuppam,12.75,78.3667,27.97,42,7,3.23,IN,1705924749
476,zanzibar,-6.1639,39.1979,28.97,75,94,3.01,TZ,1705924749
477,niamey,13.5137,2.1098,32.16,6,53,5.14,NE,1705924597
478,howrah,22.5892,88.3103,19.0,55,20,2.57,IN,1705924750
479,severnoye,56.3491,78.3619,-15.01,84,97,4.02,RU,1705924751
480,plastun,44.7561,136.2939,-5.93,88,100,8.1,RU,1705924752
481,chadan,51.2833,91.5833,-31.43,97,19,1.33,RU,1705924752
482,kuusamo,65.9667,29.1833,-2.98,93,100,7.2,FI,1705924753
483,campo verde,-20.4167,-54.0667,26.16,77,100,2.86,BR,1705924753
484,popondetta,-8.7537,148.2534,24.71,97,100,0.94,PG,1705924754
485,walvis bay,-22.9575,14.5053,21.48,71,29,4.55,NA,1705924755
486,vyaz'ma,55.2104,34.2951,-7.36,83,96,6.75,RU,1705924755
487,zhirnovsk,50.9845,44.7735,-13.49,92,11,1.3,RU,1705924756
488,soe,-9.8607,124.284,20.88,84,95,2.26,ID,1705924756
489,nicoya,10.1483,-85.452,23.71,77,49,4.96,CR,1705924757
490,jianshui,23.6363,102.8264,5.13,74,100,3.71,CN,1705924757
491,cosala,24.4125,-106.6908,15.82,59,91,1.43,MX,1705924758
492,genhe,50.7833,121.5167,-25.71,99,100,1.6,CN,1705924759
493,kramfors,62.9316,17.7765,0.89,93,100,8.75,SE,1705924759
494,cabedelo,-6.9811,-34.8339,28.37,69,7,5.18,BR,1705924760
495,zhangye,38.9342,100.4517,-9.85,41,1,2.49,CN,1705924760
496,skovorodino,53.9833,123.9167,-19.18,95,100,0.74,RU,1705924761
497,waycross,31.2136,-82.354,1.61,72,0,1.54,US,1705924762
498,lorengau,-2.0226,147.2712,27.89,81,100,4.0,PG,1705924762
499,bambous,-20.2567,57.4061,30.53,75,58,6.21,MU,1705924763
500,tevriz,57.509,72.4042,-7.51,87,100,4.09,RU,1705924763
501,swift current,50.2834,-107.8014,-12.55,85,100,5.14,CA,1705924764
502,conde,-7.2597,-34.9075,27.7,83,75,2.06,BR,1705924765
503,birao,10.2849,22.7882,34.39,5,63,2.69,CF,1705924765
504,maudaha,25.6833,80.1167,16.46,38,14,2.28,IN,1705924766
505,alappuzha,9.49,76.3264,27.22,73,19,4.8,IN,1705924766
506,bago,17.3367,96.4797,24.68,36,8,1.99,MM,1705924767
507,kisanga,-7.4362,37.7034,29.06,70,97,1.9,TZ,1705924768
508,shingu,33.7333,135.9833,8.88,80,85,3.1,JP,1705924769
509,hengchun,22.0042,120.7439,19.49,71,53,12.74,TW,1705924769
510,turpan,42.9333,89.1667,-1.23,39,100,0.36,CN,1705924770
511,nikolayevsk-on-amure,53.1406,140.73,-27.56,99,15,0.53,RU,1705924771
512,kidal,18.4411,1.4078,30.78,3,80,4.0,ML,1705924771
513,havre,49.5833,0.3333,11.86,81,75,9.77,FR,1705924772
514,mirnyy,62.5353,113.9611,-12.09,85,100,4.92,RU,1705924772
515,mount gambier,-37.8333,140.7667,13.19,72,41,4.15,AU,1705924773
516,byron bay,-28.65,153.6167,22.06,79,100,6.12,AU,1705924773
517,araban,37.4267,37.689,13.55,67,50,3.39,TR,1705924774
518,singaraja,-8.112,115.0882,27.74,82,93,1.95,ID,1705924775
519,aran,40.6253,46.9756,4.75,93,100,3.09,AZ,1705924775
520,tamiahua,21.2667,-97.45,17.07,90,100,1.13,MX,1705924776
521,tshabong,-26.05,22.45,35.33,16,14,0.68,BW,1705924776
522,harper,4.375,-7.7169,29.38,72,34,2.25,LR,1705924777
523,quellon,-43.1167,-73.6167,15.06,82,14,5.99,CL,1705924778
524,sipalay,9.75,122.5,25.16,86,68,1.48,PH,1705924779
525,yuzhno-kurilsk,44.0306,145.8556,-2.01,69,100,2.57,RU,1705924779
526,san luis del palmar,-27.5079,-58.5545,25.52,66,2,4.9,AR,1705924780
527,belle fourche,44.6714,-103.8522,2.97,65,100,1.4,US,1705924781
528,cuacnopalan,18.8167,-97.5,9.32,90,66,2.16,MX,1705924781
529,mogadishu,2.0371,45.3438,30.93,74,40,7.72,SO,1705924526
530,pavlovsk,50.4578,40.1081,-7.26,78,7,1.13,RU,1705924782
531,tateyama,34.9833,139.8667,11.17,86,100,5.76,JP,1705924783
532,grand-bassam,5.2118,-3.7388,31.98,70,38,2.85,CI,1705924783
533,goleta,36.8181,10.305,14.0,54,40,4.63,TN,1705924784
534,krasnovishersk,60.4078,57.082,-17.8,97,100,2.16,RU,1705924784
535,khandyga,62.6667,135.6,-28.02,99,100,1.59,RU,1705924785
536,zacharo,37.4833,21.65,13.38,40,0,1.05,GR,1705924786
537,fushun,41.8558,123.9233,-19.16,92,26,1.31,CN,1705924786
538,sola,-13.8833,167.55,25.94,88,100,3.61,VU,1705924787
539,beaufort west,-32.3567,22.583,28.61,30,2,6.17,ZA,1705924787
540,lospalos,-8.5186,127.0025,24.45,85,59,5.03,TL,1705924788
541,ordynskoye,54.3656,81.8994,-18.42,99,6,1.28,RU,1705924788
542,katsuren-haebaru,26.3369,127.8719,17.43,69,100,7.2,JP,1705924789
543,lata,40.1629,-8.3327,13.37,71,83,0.66,PT,1705924790
544,booue,-0.0921,11.9385,33.92,45,92,1.78,GA,1705924790
545,nola,40.922,14.5329,13.28,60,0,1.01,IT,1705924791
546,iquique,-20.2208,-70.1431,21.02,68,88,2.09,CL,1705924791
547,rabaul,-4.1967,152.1721,28.47,79,82,4.61,PG,1705924792
548,balqash,46.8481,74.995,-12.67,78,0,3.0,KZ,1705924792
549,gadzhiyevo,69.2551,33.3362,-8.02,93,100,5.81,RU,1705924793
550,rongelap,11.1635,166.8941,26.08,79,75,8.88,MH,1705924793
551,mount pleasant,32.7941,-79.8626,0.55,67,0,2.57,US,1705924727
552,fonte boa,-2.4959,-66.2662,24.0,97,95,0.97,BR,1705924794
553,celestun,20.8667,-90.4,21.34,88,100,6.57,MX,1705924795
554,khunti,23.0833,85.2833,19.06,27,52,1.58,IN,1705924795
555,kaiapoi,-43.3783,172.6401,20.04,78,13,3.6,NZ,1705924796
556,timon,-5.0942,-42.8367,28.88,74,40,3.09,BR,1705924797
557,tommot,58.9564,126.2925,-12.31,94,100,4.22,RU,1705924797
558,cholpon-ata,42.6494,77.0823,-3.97,71,54,2.96,KG,1705924798
559,oriximina,-1.7656,-55.8661,28.53,67,79,1.96,BR,1705924798
560,la villa del rosario,10.3258,-72.3134,25.29,72,18,4.41,VE,1705924799
561,dolores hidalgo cuna de la independencia nacional,21.1561,-100.9308,10.51,80,65,1.22,MX,1705924799
562,polna,49.487,15.7188,2.02,39,100,5.5,CZ,1705924800
563,hilo,19.7297,-155.09,22.36,84,11,1.79,US,1705924804
564,kenai,60.5544,-151.2583,-12.95,52,100,3.6,US,1705924806
565,luba,3.4568,8.5547,27.71,75,7,2.63,GQ,1705924807
566,callaway,30.153,-85.5699,3.96,63,100,4.63,US,1705924810
567,gaspe,48.8334,-64.4819,-12.05,85,40,1.03,CA,1705924812
568,virginia beach,36.8529,-75.978,-2.77,76,0,0.0,US,1705924518
569,katsuura,35.1333,140.3,12.03,85,100,3.03,JP,1705924814
570,ribeirao pires,-23.7106,-46.4133,23.57,72,87,2.83,BR,1705924816
571,san luis de la loma,17.2706,-100.8939,23.94,58,7,2.33,MX,1705924817
572,watertown,42.3709,-71.1828,-7.21,63,0,2.68,US,1705924818
573,kokkola,63.8385,23.1307,1.13,95,100,8.75,FI,1705924820
574,al burayqah,30.4062,19.5739,16.87,60,36,4.28,LY,1705924821
575,grande prairie,55.1667,-118.8027,-16.9,78,100,4.12,CA,1705924799
576,malinyi,-8.9333,36.1333,28.63,68,100,1.76,TZ,1705924823
577,boa vista,2.8197,-60.6733,25.99,65,0,6.17,BR,1705924824
578,kone,-21.0595,164.8658,26.01,86,100,0.93,NC,1705924825
579,touros,-5.1989,-35.4608,27.99,79,1,5.57,BR,1705924826
580,hofors,60.5457,16.2867,3.17,99,100,7.95,SE,1705924827
581,myrina,39.8797,25.0742,6.58,49,40,12.86,GR,1705924828
582,sovetsk,55.0839,21.8785,1.58,90,100,10.44,RU,1705924830
583,san isidro,-12.1167,-77.05,23.9,85,100,3.6,PE,1705924838
584,bruchmuhlbach-miesau,49.3833,7.4333,9.84,83,100,8.23,DE,1705924839
585,usinsk,65.9939,57.5281,-19.4,95,100,3.58,RU,1705924841
586,turtas,58.9417,69.1325,-7.02,91,100,5.53,RU,1705924842
587,fada,9.5667,8.3,34.3,7,5,1.04,NG,1705924843
588,nova xavantina,-14.6667,-52.35,26.12,80,96,0.97,BR,1705924844
589,kismayo,-0.3582,42.5454,31.48,49,12,8.24,SO,1705924845
590,lone grove,34.1754,-97.2628,-0.57,96,100,2.06,US,1705924847
591,macedo de cavaleiros,41.5382,-6.9611,11.88,88,100,1.03,PT,1705924848
592,heroica caborca,30.7167,-112.15,13.27,82,85,1.66,MX,1705924849
593,farmington,36.7281,-108.2187,2.89,100,100,2.64,US,1705924844
594,grantsville,40.5999,-112.4644,4.22,85,100,3.36,US,1705924850
595,lappeenranta,61.0587,28.1887,-1.78,87,100,8.23,FI,1705924851
596,melekeok village,7.4957,134.6367,27.22,75,87,6.34,PW,1705924852
597,sirte,31.2089,16.5887,16.7,58,89,6.96,LY,1705924646
598,khorixas,-20.3667,14.9667,33.74,20,6,3.79,NA,1705924853
599,cornwall,45.0181,-74.7281,-3.42,87,41,6.09,CA,1705924854
